{"type":"FeatureCollection","features":[{"type":"Feature","geometry":{"type":"Point","coordinates":[66.6953178,24.9064646]},"properties":{"source":"osm","osm_id":131600693,"osm_type":"way","kind":"generation","name":"Hub Power Plant","voltage":null,"operator":null,"plant_source":"oil","plant_output":"1292 MW","capacity_mw":1292.0}},{"type":"Feature","geometry":{"type":"Point","coordinates":[72.1989163,31.9927085]},"properties":{"source":"osm","osm_id":187976339,"osm_type":"way","kind":"generation","name":"Heavy Water Production Plant","voltage":null,"operator":null,"plant_source":"nuclear","plant_output":"50 MW","capacity_mw":50.0}},{"type":"Feature","geometry":{"type":"Point","coordinates":[72.2063032,32.0203627]},"properties":{"source":"osm","osm_id":187976341,"osm_type":"way","kind":"generation","name":"Khushab Nuclear Complex","voltage":null,"operator":null,"plant_source":"nuclear","plant_output":null,"capacity_mw":null}},{"type":"Feature","geometry":{"type":"Point","coordinates":[66.9739306,30.277901]},"properties":{"source":"osm","osm_id":239981847,"osm_type":"way","kind":"generation","name":"Habibullah Coastal Power Plant","voltage":null,"operator":null,"plant_source":"gas","plant_output":"155 MW","capacity_mw":155.0}},{"type":"Feature","geometry":{"type":"Point","coordinates":[71.163822,30.1075221]},"properties":{"source":"osm","osm_id":245040712,"osm_type":"way","kind":"generation","name":"Muzaffargarh Thermal Power Station","voltage":null,"operator":"Northern Power Generation Company Limited","plant_source":"oil","plant_output":"1350 MW","capacity_mw":1350.0}},{"type":"Feature","geometry":{"type":"Point","coordinates":[70.9819945,30.4447199]},"properties":{"source":"osm","osm_id":245060385,"osm_type":"way","kind":"generation","name":"\u06a9\u0648\u0679 \u0627\u062f\u0648 \u067e\u0627\u0648\u0631 \u067e\u0644\u0627\u0646\u0679","voltage":null,"operator":"KAPCO","plant_source":"oil;gas","plant_output":"1.6 GW","capacity_mw":1600.0}},{"type":"Feature","geometry":{"type":"Point","coordinates":[67.3600052,24.7838703]},"properties":{"source":"osm","osm_id":245063536,"osm_type":"way","kind":"generation","name":"Bin Qasim Power Plant","voltage":null,"operator":"K-Electric","plant_source":"gas","plant_output":"2355 MW","capacity_mw":2355.0}},{"type":"Feature","geometry":{"type":"Point","coordinates":[72.2567554,33.7804674]},"properties":{"source":"osm","osm_id":245064843,"osm_type":"way","kind":"generation","name":"Ghazi-Barotha Hydropower Project","voltage":null,"operator":"WAPDA","plant_source":"hydro","plant_output":"1450 MW","capacity_mw":1450.0}},{"type":"Feature","geometry":{"type":"Point","coordinates":[73.6440628,33.1269941]},"properties":{"source":"osm","osm_id":245066467,"osm_type":"way","kind":"generation","name":"\u0645\u0646\u06af\u0644\u0627 \u06c1\u0627\u0626\u06cc\u0688\u0631\u0648 \u067e\u0627\u0648\u0631 \u067e\u0644\u0627\u0646\u0679","voltage":null,"operator":"WAPDA","plant_source":"hydro","plant_output":"1070 MW","capacity_mw":1070.0}},{"type":"Feature","geometry":{"type":"Point","coordinates":[69.6977994,28.4287188]},"properties":{"source":"osm","osm_id":245153797,"osm_type":"way","kind":"generation","name":"Guddu Thermal Power Station","voltage":null,"operator":"Central Power Generation Company Limited","plant_source":"gas","plant_output":"1791.7 MW","capacity_mw":1791.7}},{"type":"Feature","geometry":{"type":"Point","coordinates":[72.1387224,30.567212]},"properties":{"source":"osm","osm_id":245155348,"osm_type":"way","kind":"generation","name":"Power Station Rousch","voltage":null,"operator":null,"plant_source":"gas","plant_output":"450 MW","capacity_mw":450.0}},{"type":"Feature","geometry":{"type":"Point","coordinates":[69.636689,28.0322996]},"properties":{"source":"osm","osm_id":245252751,"osm_type":"way","kind":"generation","name":"TNB Liberty Daharki Power Plant","voltage":null,"operator":null,"plant_source":"gas","plant_output":"235 MW","capacity_mw":235.0}},{"type":"Feature","geometry":{"type":"Point","coordinates":[69.6732645,27.9804254]},"properties":{"source":"osm","osm_id":245459808,"osm_type":"way","kind":"generation","name":"Foundation Power Company","voltage":null,"operator":null,"plant_source":"gas","plant_output":"179 MW","capacity_mw":179.0}},{"type":"Feature","geometry":{"type":"Point","coordinates":[69.3654305,28.0261736]},"properties":{"source":"osm","osm_id":245464079,"osm_type":"way","kind":"generation","name":"Engro Powergen Qadirpur Limited","voltage":null,"operator":"Engro Energy","plant_source":"gas","plant_output":"227 MW","capacity_mw":227.0}},{"type":"Feature","geometry":{"type":"Point","coordinates":[71.9554069,30.523781]},"properties":{"source":"osm","osm_id":245480070,"osm_type":"way","kind":"generation","name":"Fauji Kabirwala Power Plant","voltage":null,"operator":"Fauji Kabirwala Power Company","plant_source":"gas","plant_output":"157 MW","capacity_mw":157.0}},{"type":"Feature","geometry":{"type":"Point","coordinates":[66.9069972,25.0001984]},"properties":{"source":"osm","osm_id":245536570,"osm_type":"way","kind":"generation","name":"Tapal Energy Power Plant","voltage":null,"operator":null,"plant_source":"diesel","plant_output":"126 MW","capacity_mw":126.0}},{"type":"Feature","geometry":{"type":"Point","coordinates":[66.9905454,24.9129422]},"properties":{"source":"osm","osm_id":245537325,"osm_type":"way","kind":"generation","name":"SITE Gas Turbine Power Station","voltage":null,"operator":"K-Electric","plant_source":"gas","plant_output":"107.312 MW","capacity_mw":107.312}},{"type":"Feature","geometry":{"type":"Point","coordinates":[67.1318164,24.8464108]},"properties":{"source":"osm","osm_id":245548496,"osm_type":"way","kind":"generation","name":"Anoud Power Generation","voltage":null,"operator":null,"plant_source":"oil","plant_output":"12 MW","capacity_mw":12.0}},{"type":"Feature","geometry":{"type":"Point","coordinates":[67.1464802,24.8499939]},"properties":{"source":"osm","osm_id":245548497,"osm_type":"way","kind":"generation","name":"Gul Ahmed Energy Oil Power Plant","voltage":null,"operator":null,"plant_source":"oil","plant_output":"136 MW","capacity_mw":136.0}},{"type":"Feature","geometry":{"type":"Point","coordinates":[67.1455384,24.8485356]},"properties":{"source":"osm","osm_id":245548498,"osm_type":"way","kind":"generation","name":"Korangi Town Gas Engine Power Station","voltage":null,"operator":"K-Electric","plant_source":"gas","plant_output":"107.312 MW","capacity_mw":107.312}},{"type":"Feature","geometry":{"type":"Point","coordinates":[67.1375249,24.786282]},"properties":{"source":"osm","osm_id":245548499,"osm_type":"way","kind":"generation","name":"Korangi Combined Cycle Power Plant","voltage":null,"operator":"K-Electric","plant_source":"gas","plant_output":"247.5 MW","capacity_mw":247.5}},{"type":"Feature","geometry":{"type":"Point","coordinates":[68.2561214,25.3408832]},"properties":{"source":"osm","osm_id":245549821,"osm_type":"way","kind":"generation","name":"Kotri CCGT Power Station","voltage":null,"operator":"Jamshoro Power Company","plant_source":"gas","plant_output":"144 MW","capacity_mw":144.0}},{"type":"Feature","geometry":{"type":"Point","coordinates":[68.2832077,25.703847]},"properties":{"source":"osm","osm_id":245550458,"osm_type":"way","kind":"generation","name":"Lakhra Coal Power Plant","voltage":null,"operator":"Water & Power Development Authority (WAPDA)","plant_source":"coal","plant_output":"150 MW","capacity_mw":150.0}},{"type":"Feature","geometry":{"type":"Point","coordinates":[74.1889921,31.2631457]},"properties":{"source":"osm","osm_id":245849156,"osm_type":"way","kind":"generation","name":"Kohinoor Energy Power Plant","voltage":null,"operator":"Kohinoor Energy Limited","plant_source":"oil","plant_output":"131.44 MW","capacity_mw":131.44}},{"type":"Feature","geometry":{"type":"Point","coordinates":[73.8753244,31.7326248]},"properties":{"source":"osm","osm_id":245890006,"osm_type":"way","kind":"generation","name":"Saba Power Plant","voltage":null,"operator":null,"plant_source":"oil","plant_output":"134 MW","capacity_mw":134.0}},{"type":"Feature","geometry":{"type":"Point","coordinates":[74.0837791,31.678919]},"properties":{"source":"osm","osm_id":245890007,"osm_type":"way","kind":"generation","name":"\u0627\u0679\u0644\u0633 \u067e\u0627\u0648\u0631 \u067e\u0644\u0627\u0646\u0679","voltage":null,"operator":null,"plant_source":"oil","plant_output":"213.856 MW","capacity_mw":213.856}},{"type":"Feature","geometry":{"type":"Point","coordinates":[73.1339098,31.445278]},"properties":{"source":"osm","osm_id":245892719,"osm_type":"way","kind":"generation","name":"Faisalabad GTPS Power Station","voltage":null,"operator":"Northern Power Generation Company Limited","plant_source":"gas","plant_output":"144 MW","capacity_mw":144.0}},{"type":"Feature","geometry":{"type":"Point","coordinates":[73.0737028,33.5563187]},"properties":{"source":"osm","osm_id":245895948,"osm_type":"way","kind":"generation","name":"Attock Gen Limited - Power Plant","voltage":null,"operator":"Wartsila","plant_source":"oil","plant_output":"165 MW","capacity_mw":165.0}},{"type":"Feature","geometry":{"type":"Point","coordinates":[73.8897811,31.1882351]},"properties":{"source":"osm","osm_id":250579325,"osm_type":"way","kind":"generation","name":"Orient Power Balloki Power Plant","voltage":null,"operator":null,"plant_source":"gas","plant_output":"225 MW","capacity_mw":225.0}},{"type":"Feature","geometry":{"type":"Point","coordinates":[73.9029424,31.1227046]},"properties":{"source":"osm","osm_id":250579332,"osm_type":"way","kind":"generation","name":"\u0646\u0634\u0627\u0637 \u067e\u0627\u0648\u0631 \u0644\u0645\u06cc\u0679\u0688","voltage":null,"operator":null,"plant_source":"oil","plant_output":"200 MW","capacity_mw":200.0}},{"type":"Feature","geometry":{"type":"Point","coordinates":[74.1985051,31.3361092]},"properties":{"source":"osm","osm_id":291545416,"osm_type":"way","kind":"generation","name":"Sharif Medical Hospital","voltage":null,"operator":null,"plant_source":"solar","plant_output":null,"capacity_mw":null}},{"type":"Feature","geometry":{"type":"Point","coordinates":[74.0893648,31.6806066]},"properties":{"source":"osm","osm_id":333722436,"osm_type":"way","kind":"generation","name":"Atlas Honda Limited","voltage":null,"operator":null,"plant_source":"solar","plant_output":null,"capacity_mw":null}},{"type":"Feature","geometry":{"type":"Point","coordinates":[71.466973,32.3870599]},"properties":{"source":"osm","osm_id":386839399,"osm_type":"way","kind":"generation","name":"Chamsa Nuclear Power Complex","voltage":null,"operator":"Pakistan Atomic Energy Commission","plant_source":"nuclear","plant_output":"1228 MW","capacity_mw":1228.0}},{"type":"Feature","geometry":{"type":"Point","coordinates":[73.870374,31.633447]},"properties":{"source":"osm","osm_id":387313396,"osm_type":"way","kind":"generation","name":"Halmore Power","voltage":null,"operator":null,"plant_source":"gas","plant_output":"225 MW","capacity_mw":225.0}},{"type":"Feature","geometry":{"type":"Point","coordinates":[74.7807289,32.058824]},"properties":{"source":"osm","osm_id":389008005,"osm_type":"way","kind":"generation","name":"Hubco Narowal Power Plant","voltage":null,"operator":"HUBCO","plant_source":"oil","plant_output":"225 MW","capacity_mw":225.0}},{"type":"Feature","geometry":{"type":"Point","coordinates":[70.9938237,30.1728819]},"properties":{"source":"osm","osm_id":389011727,"osm_type":"way","kind":"generation","name":"Lalpir & PakGen Power Plant","voltage":null,"operator":null,"plant_source":"oil","plant_output":"727 MW","capacity_mw":727.0}},{"type":"Feature","geometry":{"type":"Point","coordinates":[73.2605578,30.6963284]},"properties":{"source":"osm","osm_id":389013350,"osm_type":"way","kind":"generation","name":"Sahiwal Saif Power Limited Power Plant","voltage":null,"operator":null,"plant_source":"gas","plant_output":"225 MW","capacity_mw":225.0}},{"type":"Feature","geometry":{"type":"Point","coordinates":[71.8239893,29.3186846]},"properties":{"source":"osm","osm_id":389519829,"osm_type":"way","kind":"generation","name":"Quaid-e-Azam Solar Power","voltage":null,"operator":"Quaid-e-Azam Solar Power (Pvt.) Limited","plant_source":"solar","plant_output":"100 MW","capacity_mw":100.0}},{"type":"Feature","geometry":{"type":"Point","coordinates":[71.3597938,34.16362]},"properties":{"source":"osm","osm_id":389552302,"osm_type":"way","kind":"generation","name":"Warsak Hydropower Station","voltage":null,"operator":"WAPDA","plant_source":"hydro","plant_output":"242.96 MW","capacity_mw":242.96}},{"type":"Feature","geometry":{"type":"Point","coordinates":[71.9189579,34.5188893]},"properties":{"source":"osm","osm_id":394234260,"osm_type":"way","kind":"generation","name":"P G","voltage":null,"operator":null,"plant_source":"hydro","plant_output":"yes","capacity_mw":null}},{"type":"Feature","geometry":{"type":"Point","coordinates":[75.3595954,35.4720563]},"properties":{"source":"osm","osm_id":399234566,"osm_type":"way","kind":"generation","name":"Hydel Station Ph-III Basho","voltage":null,"operator":null,"plant_source":"hydro","plant_output":"0.5 MW","capacity_mw":0.5}},{"type":"Feature","geometry":{"type":"Point","coordinates":[74.7393223,36.3057372]},"properties":{"source":"osm","osm_id":400359189,"osm_type":"way","kind":"generation","name":"Power Station","voltage":null,"operator":null,"plant_source":"hydro","plant_output":null,"capacity_mw":null}},{"type":"Feature","geometry":{"type":"Point","coordinates":[74.78093,36.5861696]},"properties":{"source":"osm","osm_id":400911147,"osm_type":"way","kind":"generation","name":"Hydel Station Phase-I Khyber Gojal","voltage":null,"operator":null,"plant_source":"hydro","plant_output":"0.4 MW","capacity_mw":0.4}},{"type":"Feature","geometry":{"type":"Point","coordinates":[75.6198754,35.2745453]},"properties":{"source":"osm","osm_id":401410905,"osm_type":"way","kind":"generation","name":"Skardu Power House IV","voltage":null,"operator":null,"plant_source":"hydro","plant_output":"yes","capacity_mw":null}},{"type":"Feature","geometry":{"type":"Point","coordinates":[66.7749905,24.8518147]},"properties":{"source":"osm","osm_id":403601261,"osm_type":"way","kind":"generation","name":"KANUPP 2&3","voltage":null,"operator":null,"plant_source":"nuclear","plant_output":"2034 MW","capacity_mw":2034.0}},{"type":"Feature","geometry":{"type":"Point","coordinates":[71.5134985,32.9225418]},"properties":{"source":"osm","osm_id":423657417,"osm_type":"way","kind":"generation","name":"Jinnah Power House","voltage":null,"operator":"WAPDA","plant_source":"hydro","plant_output":"96 MW","capacity_mw":96.0}},{"type":"Feature","geometry":{"type":"Point","coordinates":[67.4420811,25.0426122]},"properties":{"source":"osm","osm_id":443479792,"osm_type":"way","kind":"generation","name":"RSS Khadeji SSGC Ltd.","voltage":null,"operator":"Sui Southern Gas Company","plant_source":"gas","plant_output":"yes","capacity_mw":null}},{"type":"Feature","geometry":{"type":"Point","coordinates":[73.2098927,31.6986871]},"properties":{"source":"osm","osm_id":446624862,"osm_type":"way","kind":"generation","name":"Faisalabad Liberty Power Tech Power Plant","voltage":null,"operator":null,"plant_source":"oil","plant_output":"202 MW","capacity_mw":202.0}},{"type":"Feature","geometry":{"type":"Point","coordinates":[67.2448167,24.8549425]},"properties":{"source":"osm","osm_id":449539129,"osm_type":"way","kind":"generation","name":"Kia","voltage":null,"operator":null,"plant_source":"solar","plant_output":null,"capacity_mw":null}},{"type":"Feature","geometry":{"type":"Point","coordinates":[67.3701561,24.7841633]},"properties":{"source":"osm","osm_id":452185211,"osm_type":"way","kind":"generation","name":"Port Qasim Coal Power Plant","voltage":null,"operator":"Port Qasim Energy Holding","plant_source":"coal","plant_output":"1320 MW","capacity_mw":1320.0}},{"type":"Feature","geometry":{"type":"Point","coordinates":[72.0455044,34.4202477]},"properties":{"source":"osm","osm_id":515307623,"osm_type":"way","kind":"generation","name":"Machai Power Plant 2.6 MV","voltage":null,"operator":null,"plant_source":"hydro","plant_output":null,"capacity_mw":null}},{"type":"Feature","geometry":{"type":"Point","coordinates":[73.562302,32.6935108]},"properties":{"source":"osm","osm_id":547967423,"osm_type":"way","kind":"generation","name":"\u0631\u0633\u0648\u0644 \u06c1\u0627\u0626\u06cc\u0688\u0631\u0648 \u067e\u0627\u0648\u0631 \u067e\u0644\u0627\u0646\u0679","voltage":null,"operator":"WAPDA","plant_source":"hydro","plant_output":"22 MW","capacity_mw":22.0}},{"type":"Feature","geometry":{"type":"Point","coordinates":[73.2355528,30.7155947]},"properties":{"source":"osm","osm_id":548393895,"osm_type":"way","kind":"generation","name":"Sahiwal Coal Power Plant","voltage":null,"operator":"Huaneng Shandong and Shandong Ruyi","plant_source":"coal","plant_output":"1320 MW","capacity_mw":1320.0}},{"type":"Feature","geometry":{"type":"Point","coordinates":[72.1720057,32.0090601]},"properties":{"source":"osm","osm_id":582056234,"osm_type":"way","kind":"generation","name":"Plutonium Production 2 & 3","voltage":null,"operator":null,"plant_source":"nuclear","plant_output":"yes","capacity_mw":null}},{"type":"Feature","geometry":{"type":"Point","coordinates":[67.8140504,25.1292639]},"properties":{"source":"osm","osm_id":595218418,"osm_type":"way","kind":"generation","name":"Sindh Nooriabad Power Plant","voltage":null,"operator":"Sindh Nooriabad Power Company","plant_source":"gas","plant_output":"104.2 MW","capacity_mw":104.2}},{"type":"Feature","geometry":{"type":"Point","coordinates":[71.8391334,29.3125813]},"properties":{"source":"osm","osm_id":596123515,"osm_type":"way","kind":"generation","name":"Appolo Solar Development","voltage":null,"operator":"Appolo Solar Development Pakistan Limited","plant_source":"solar","plant_output":"100 MW","capacity_mw":100.0}},{"type":"Feature","geometry":{"type":"Point","coordinates":[71.8209483,29.3014968]},"properties":{"source":"osm","osm_id":596123516,"osm_type":"way","kind":"generation","name":"Crest Energy","voltage":null,"operator":"Crest Energy Pakistan Limited","plant_source":"solar","plant_output":"100 MW","capacity_mw":100.0}},{"type":"Feature","geometry":{"type":"Point","coordinates":[71.8357895,29.3010296]},"properties":{"source":"osm","osm_id":596123517,"osm_type":"way","kind":"generation","name":"Best Green Energy","voltage":null,"operator":"Best Green Energy Pakistan Limited","plant_source":"solar","plant_output":"100 MW","capacity_mw":100.0}},{"type":"Feature","geometry":{"type":"Point","coordinates":[72.1671895,31.9897196]},"properties":{"source":"osm","osm_id":596256453,"osm_type":"way","kind":"generation","name":"Khushab Coal-Fired Thermal Power Plant","voltage":null,"operator":"PAEC","plant_source":"coal","plant_output":"50 MW","capacity_mw":50.0}},{"type":"Feature","geometry":{"type":"Point","coordinates":[72.1721557,32.0013575]},"properties":{"source":"osm","osm_id":596256457,"osm_type":"way","kind":"generation","name":"Plutonium Production 4","voltage":null,"operator":null,"plant_source":"nuclear","plant_output":"50 MW","capacity_mw":50.0}},{"type":"Feature","geometry":{"type":"Point","coordinates":[71.7650978,36.0211598]},"properties":{"source":"osm","osm_id":624067847,"osm_type":"way","kind":"generation","name":"Shoghore Hydro Electric Power Station","voltage":null,"operator":null,"plant_source":"hydro","plant_output":null,"capacity_mw":null}},{"type":"Feature","geometry":{"type":"Point","coordinates":[70.3954128,24.8134804]},"properties":{"source":"osm","osm_id":690319732,"osm_type":"way","kind":"generation","name":"Engro Thar Coal Power Project","voltage":null,"operator":"Engro Power Gen Thar LTd.","plant_source":"coal","plant_output":"660 MW","capacity_mw":660.0}},{"type":"Feature","geometry":{"type":"Point","coordinates":[74.3532862,31.4245581]},"properties":{"source":"osm","osm_id":705031741,"osm_type":"way","kind":"generation","name":"MicroTech Industries","voltage":null,"operator":null,"plant_source":"solar","plant_output":null,"capacity_mw":null}},{"type":"Feature","geometry":{"type":"Point","coordinates":[74.3547751,31.427932]},"properties":{"source":"osm","osm_id":705032744,"osm_type":"way","kind":"generation","name":"UNIFORMERS Head Office","voltage":null,"operator":null,"plant_source":"solar","plant_output":null,"capacity_mw":null}},{"type":"Feature","geometry":{"type":"Point","coordinates":[73.0006496,34.8463432]},"properties":{"source":"osm","osm_id":710499771,"osm_type":"way","kind":"generation","name":"Allai Khwar Hydro Power","voltage":null,"operator":"WAPDA","plant_source":"hydro","plant_output":"121 MW","capacity_mw":121.0}},{"type":"Feature","geometry":{"type":"Point","coordinates":[74.3529232,31.4679803]},"properties":{"source":"osm","osm_id":718280829,"osm_type":"way","kind":"generation","name":"CSD Department","voltage":null,"operator":null,"plant_source":"solar","plant_output":null,"capacity_mw":null}},{"type":"Feature","geometry":{"type":"Point","coordinates":[74.3519783,31.4673771]},"properties":{"source":"osm","osm_id":718280830,"osm_type":"way","kind":"generation","name":"Workshop (Packages Ltd.","voltage":null,"operator":null,"plant_source":"solar","plant_output":null,"capacity_mw":null}},{"type":"Feature","geometry":{"type":"Point","coordinates":[74.3559297,31.4712443]},"properties":{"source":"osm","osm_id":778472693,"osm_type":"way","kind":"generation","name":"Packages Mall","voltage":null,"operator":null,"plant_source":"solar","plant_output":null,"capacity_mw":null}},{"type":"Feature","geometry":{"type":"Point","coordinates":[73.5481453,31.5892978]},"properties":{"source":"osm","osm_id":788255165,"osm_type":"way","kind":"generation","name":"Shams Textile Mills Unit # 2","voltage":null,"operator":null,"plant_source":"solar","plant_output":null,"capacity_mw":null}},{"type":"Feature","geometry":{"type":"Point","coordinates":[73.5489574,31.5900698]},"properties":{"source":"osm","osm_id":788255166,"osm_type":"way","kind":"generation","name":"Shams Textile Mills Unit # 3","voltage":null,"operator":null,"plant_source":"solar","plant_output":null,"capacity_mw":null}},{"type":"Feature","geometry":{"type":"Point","coordinates":[73.5491204,31.591332]},"properties":{"source":"osm","osm_id":788255167,"osm_type":"way","kind":"generation","name":"Crescent Power Tech Ltd.","voltage":null,"operator":null,"plant_source":"oil","plant_output":"27 MW","capacity_mw":27.0}},{"type":"Feature","geometry":{"type":"Point","coordinates":[73.5437465,31.5898582]},"properties":{"source":"osm","osm_id":795917922,"osm_type":"way","kind":"generation","name":"Weaving Shed","voltage":null,"operator":null,"plant_source":"solar","plant_output":null,"capacity_mw":null}},{"type":"Feature","geometry":{"type":"Point","coordinates":[73.5446302,31.5900719]},"properties":{"source":"osm","osm_id":795917923,"osm_type":"way","kind":"generation","name":"Spinning Shed","voltage":null,"operator":null,"plant_source":"solar","plant_output":null,"capacity_mw":null}},{"type":"Feature","geometry":{"type":"Point","coordinates":[74.2692245,32.2440699]},"properties":{"source":"osm","osm_id":796674823,"osm_type":"way","kind":"generation","name":"\u0646\u0646\u062f\u06cc \u067e\u0648\u0631 \u062a\u06be\u0631\u0645\u0644 \u067e\u0627\u0648\u0631 \u067e\u0631\u0648\u062c\u06cc\u06a9\u0679","voltage":null,"operator":"Nandipur Thermal Power Generation Company Ltd.","plant_source":"gas","plant_output":"565.65 MW","capacity_mw":565.65}},{"type":"Feature","geometry":{"type":"Point","coordinates":[73.8022524,31.5909196]},"properties":{"source":"osm","osm_id":802145409,"osm_type":"way","kind":"generation","name":"Riaz Textile Mills Ltd","voltage":null,"operator":null,"plant_source":"solar","plant_output":null,"capacity_mw":null}},{"type":"Feature","geometry":{"type":"Point","coordinates":[73.8012761,31.5913513]},"properties":{"source":"osm","osm_id":802145410,"osm_type":"way","kind":"generation","name":"Riaz Textile Mills Ltd","voltage":null,"operator":null,"plant_source":"solar","plant_output":null,"capacity_mw":null}},{"type":"Feature","geometry":{"type":"Point","coordinates":[73.7999859,31.5912485]},"properties":{"source":"osm","osm_id":802145411,"osm_type":"way","kind":"generation","name":"Riaz Textile Mills Ltd","voltage":null,"operator":null,"plant_source":"solar","plant_output":null,"capacity_mw":null}},{"type":"Feature","geometry":{"type":"Point","coordinates":[73.7931517,31.5858895]},"properties":{"source":"osm","osm_id":802145429,"osm_type":"way","kind":"generation","name":"Diamond Fabrics Limited","voltage":null,"operator":null,"plant_source":"solar","plant_output":null,"capacity_mw":null}},{"type":"Feature","geometry":{"type":"Point","coordinates":[73.7908423,31.5864231]},"properties":{"source":"osm","osm_id":802145430,"osm_type":"way","kind":"generation","name":"Diamond Fabrics Limited","voltage":null,"operator":null,"plant_source":"solar","plant_output":null,"capacity_mw":null}},{"type":"Feature","geometry":{"type":"Point","coordinates":[73.788848,31.5862539]},"properties":{"source":"osm","osm_id":802145452,"osm_type":"way","kind":"generation","name":"Sapphire Fibres Ltd Unit No.03","voltage":null,"operator":null,"plant_source":"solar","plant_output":null,"capacity_mw":null}},{"type":"Feature","geometry":{"type":"Point","coordinates":[71.2001135,30.0983216]},"properties":{"source":"osm","osm_id":803000063,"osm_type":"way","kind":"generation","name":"Fatima Spinning & Weaving Mills Ltd","voltage":null,"operator":null,"plant_source":"solar","plant_output":null,"capacity_mw":null}},{"type":"Feature","geometry":{"type":"Point","coordinates":[73.4470529,31.571463]},"properties":{"source":"osm","osm_id":815490166,"osm_type":"way","kind":"generation","name":"Rana Denim","voltage":null,"operator":null,"plant_source":"solar","plant_output":null,"capacity_mw":null}},{"type":"Feature","geometry":{"type":"Point","coordinates":[73.3690039,31.884116]},"properties":{"source":"osm","osm_id":816211749,"osm_type":"way","kind":"generation","name":"CBL","voltage":null,"operator":null,"plant_source":"solar","plant_output":null,"capacity_mw":null}},{"type":"Feature","geometry":{"type":"Point","coordinates":[73.369061,31.884646]},"properties":{"source":"osm","osm_id":816211750,"osm_type":"way","kind":"generation","name":"CBL","voltage":null,"operator":null,"plant_source":"solar","plant_output":null,"capacity_mw":null}},{"type":"Feature","geometry":{"type":"Point","coordinates":[73.3678995,31.8840095]},"properties":{"source":"osm","osm_id":816211751,"osm_type":"way","kind":"generation","name":"CBL","voltage":null,"operator":null,"plant_source":"solar","plant_output":null,"capacity_mw":null}},{"type":"Feature","geometry":{"type":"Point","coordinates":[74.4748626,32.660165]},"properties":{"source":"osm","osm_id":846893108,"osm_type":"way","kind":"generation","name":"Marala Hydropower Project","voltage":null,"operator":"Government of Punjab","plant_source":"hydro","plant_output":"7 MW","capacity_mw":7.0}},{"type":"Feature","geometry":{"type":"Point","coordinates":[73.8388249,33.109823]},"properties":{"source":"osm","osm_id":851198308,"osm_type":"way","kind":"generation","name":"Jari power house","voltage":null,"operator":"WAPDA","plant_source":"hydro","plant_output":"yes","capacity_mw":null}},{"type":"Feature","geometry":{"type":"Point","coordinates":[73.7133842,33.0887705]},"properties":{"source":"osm","osm_id":851251211,"osm_type":"way","kind":"generation","name":"Bong Escape Hydropower Project","voltage":null,"operator":"HUBCO","plant_source":"hydro","plant_output":"84 MW","capacity_mw":84.0}},{"type":"Feature","geometry":{"type":"Point","coordinates":[73.5105837,34.1962187]},"properties":{"source":"osm","osm_id":851934292,"osm_type":"way","kind":"generation","name":"Neelum-Jhelum Hydropower Station","voltage":null,"operator":"WAPDA","plant_source":"hydro","plant_output":"969 MW","capacity_mw":969.0}},{"type":"Feature","geometry":{"type":"Point","coordinates":[73.4512574,34.3345342]},"properties":{"source":"osm","osm_id":851936991,"osm_type":"way","kind":"generation","name":"Patrind Hydropower Plant","voltage":null,"operator":"Star Hydro Power Pvt. Limited","plant_source":"hydro","plant_output":"150 MW","capacity_mw":150.0}},{"type":"Feature","geometry":{"type":"Point","coordinates":[70.5658429,33.0175672]},"properties":{"source":"osm","osm_id":857630244,"osm_type":"way","kind":"generation","name":"Kurram Garhi Hydropower Plant","voltage":null,"operator":"WAPDA","plant_source":"hydro","plant_output":"4 MW","capacity_mw":4.0}},{"type":"Feature","geometry":{"type":"Point","coordinates":[71.3693762,32.4356026]},"properties":{"source":"osm","osm_id":857637599,"osm_type":"way","kind":"generation","name":"Chashma Barrage Hydro","voltage":null,"operator":"WAPDA","plant_source":"hydro","plant_output":"184 MW","capacity_mw":184.0}},{"type":"Feature","geometry":{"type":"Point","coordinates":[73.8676537,33.4553904]},"properties":{"source":"osm","osm_id":857756283,"osm_type":"way","kind":"generation","name":"Gulpur Hydropower Plant","voltage":null,"operator":"Mira Power Private Limited","plant_source":"hydro","plant_output":"102 MW","capacity_mw":102.0}},{"type":"Feature","geometry":{"type":"Point","coordinates":[66.6870301,24.918719]},"properties":{"source":"osm","osm_id":859896499,"osm_type":"way","kind":"generation","name":"China Power Hub Power Plant","voltage":null,"operator":"China Power Hub Generation Company (Private) Limited","plant_source":"coal","plant_output":"1320 MW","capacity_mw":1320.0}},{"type":"Feature","geometry":{"type":"Point","coordinates":[70.30198,24.7114171]},"properties":{"source":"osm","osm_id":859911854,"osm_type":"way","kind":"generation","name":"Thar Block I Power Plant","voltage":null,"operator":"Shanghai Electric Power Company Limited","plant_source":"coal","plant_output":"1320 MW","capacity_mw":1320.0}},{"type":"Feature","geometry":{"type":"Point","coordinates":[70.4020245,24.8063065]},"properties":{"source":"osm","osm_id":859927477,"osm_type":"way","kind":"generation","name":"Thar Energy Limited (TEL)","voltage":null,"operator":"HUBCO Power","plant_source":"coal","plant_output":"330 MW","capacity_mw":330.0}},{"type":"Feature","geometry":{"type":"Point","coordinates":[70.3921896,24.8167792]},"properties":{"source":"osm","osm_id":859927478,"osm_type":"way","kind":"generation","name":"ThalNova Power Thar Limited","voltage":null,"operator":"HUBCO","plant_source":"coal","plant_output":"330 MW","capacity_mw":330.0}},{"type":"Feature","geometry":{"type":"Point","coordinates":[72.190443,31.1263479]},"properties":{"source":"osm","osm_id":863128989,"osm_type":"way","kind":"generation","name":"Haveli Bahadur Shah Power Plant","voltage":null,"operator":"National Power Parks Management Company","plant_source":"gas","plant_output":"1230 MW","capacity_mw":1230.0}},{"type":"Feature","geometry":{"type":"Point","coordinates":[72.1880958,31.1151158]},"properties":{"source":"osm","osm_id":863128990,"osm_type":"way","kind":"generation","name":"Jhang Trimmu Punjab Thermal Power Plant","voltage":null,"operator":"Govt. of Punjab","plant_source":"gas","plant_output":"1263 MW","capacity_mw":1263.0}},{"type":"Feature","geometry":{"type":"Point","coordinates":[72.1397987,31.1466785]},"properties":{"source":"osm","osm_id":863137703,"osm_type":"way","kind":"generation","name":"Trimmu Hydropower Project","voltage":null,"operator":"Noor Power","plant_source":"hydro","plant_output":"19.2 MW","capacity_mw":19.2}},{"type":"Feature","geometry":{"type":"Point","coordinates":[73.9274202,31.0366769]},"properties":{"source":"osm","osm_id":864698074,"osm_type":"way","kind":"generation","name":null,"voltage":null,"operator":"National Power Parks Management Company","plant_source":"gas","plant_output":"1223 MW","capacity_mw":1223.0}},{"type":"Feature","geometry":{"type":"Point","coordinates":[74.115008,31.7945142]},"properties":{"source":"osm","osm_id":865774080,"osm_type":"way","kind":"generation","name":"Chichoki Malliyan Hydel Power Station","voltage":null,"operator":null,"plant_source":"hydro","plant_output":"yes","capacity_mw":null}},{"type":"Feature","geometry":{"type":"Point","coordinates":[71.9579552,35.9501168]},"properties":{"source":"osm","osm_id":881672417,"osm_type":"way","kind":"generation","name":"Golen Gol Hydropower Project","voltage":null,"operator":"WAPDA","plant_source":"hydro","plant_output":"108 MW","capacity_mw":108.0}},{"type":"Feature","geometry":{"type":"Point","coordinates":[72.994581,35.105611]},"properties":{"source":"osm","osm_id":881693901,"osm_type":"way","kind":"generation","name":"Duber Khwar Hydroelectric Plant","voltage":null,"operator":"WAPDA","plant_source":"hydro","plant_output":"130 MW","capacity_mw":130.0}},{"type":"Feature","geometry":{"type":"Point","coordinates":[72.78679,34.8895817]},"properties":{"source":"osm","osm_id":881719957,"osm_type":"way","kind":"generation","name":"Kahn Khwar1 Hydro","voltage":null,"operator":null,"plant_source":"hydro","plant_output":"100 MW","capacity_mw":100.0}},{"type":"Feature","geometry":{"type":"Point","coordinates":[72.8936078,35.0459813]},"properties":{"source":"osm","osm_id":881741909,"osm_type":"way","kind":"generation","name":"anolia hydropower project","voltage":null,"operator":"Pakhtunkhwa Hydel Development Organizatio","plant_source":"hydro","plant_output":"17 MW","capacity_mw":17.0}},{"type":"Feature","geometry":{"type":"Point","coordinates":[69.884997,32.0992419]},"properties":{"source":"osm","osm_id":883601235,"osm_type":"way","kind":"generation","name":"Gomal Zam Hydro Power Station","voltage":null,"operator":"WAPDA","plant_source":"hydro","plant_output":"17.4 MW","capacity_mw":17.4}},{"type":"Feature","geometry":{"type":"Point","coordinates":[67.4959684,26.1726958]},"properties":{"source":"osm","osm_id":899738321,"osm_type":"way","kind":"generation","name":"Solar park","voltage":null,"operator":null,"plant_source":"solar","plant_output":"yes","capacity_mw":null}},{"type":"Feature","geometry":{"type":"Point","coordinates":[73.5454631,31.5891066]},"properties":{"source":"osm","osm_id":919632756,"osm_type":"way","kind":"generation","name":"New Weaving Shed 3","voltage":null,"operator":null,"plant_source":"solar","plant_output":null,"capacity_mw":null}},{"type":"Feature","geometry":{"type":"Point","coordinates":[74.0351908,31.7598881]},"properties":{"source":"osm","osm_id":925270498,"osm_type":"way","kind":"generation","name":"Sapphire Electric Power Plant","voltage":null,"operator":"Sapphire Electric Company Limited","plant_source":"gas","plant_output":"235 MW","capacity_mw":235.0}},{"type":"Feature","geometry":{"type":"Point","coordinates":[70.9679509,30.2953079]},"properties":{"source":"osm","osm_id":945312725,"osm_type":"way","kind":"generation","name":"Fatima Energy","voltage":null,"operator":"Fatima Energy Limited","plant_source":"biomass;coal","plant_output":"120 MW","capacity_mw":120.0}},{"type":"Feature","geometry":{"type":"Point","coordinates":[68.2629754,25.4725327]},"properties":{"source":"osm","osm_id":961254236,"osm_type":"way","kind":"generation","name":"Jamshoro Thermal Power Plant","voltage":null,"operator":"Jamshoro Power Company","plant_source":"gas;oil","plant_output":"880 MW","capacity_mw":880.0}},{"type":"Feature","geometry":{"type":"Point","coordinates":[75.6361063,35.2633295]},"properties":{"source":"osm","osm_id":974579910,"osm_type":"way","kind":"generation","name":"Skardu Power House II","voltage":null,"operator":"Skardu PWD","plant_source":"hydro","plant_output":"yes","capacity_mw":null}},{"type":"Feature","geometry":{"type":"Point","coordinates":[75.6414654,35.2491139]},"properties":{"source":"osm","osm_id":974579911,"osm_type":"way","kind":"generation","name":"Skardu Power Station I","voltage":null,"operator":"Skardu PWD","plant_source":"hydro","plant_output":"17.36 MW","capacity_mw":17.36}},{"type":"Feature","geometry":{"type":"Point","coordinates":[72.897427,30.5800189]},"properties":{"source":"osm","osm_id":1002390901,"osm_type":"way","kind":"generation","name":"Harappa Solar","voltage":null,"operator":null,"plant_source":"solar","plant_output":"18 MW","capacity_mw":18.0}},{"type":"Feature","geometry":{"type":"Point","coordinates":[73.9053537,31.6033816]},"properties":{"source":"osm","osm_id":1018681707,"osm_type":"way","kind":"generation","name":"\u0628\u06be\u06a9\u06be\u06cc \u067e\u0627\u0648\u0631 \u067e\u0644\u0627\u0646\u0679","voltage":null,"operator":"Quaid e Azam Thermal Power Limited (QATPL)","plant_source":"gas","plant_output":"1230.9 MW","capacity_mw":1230.9}},{"type":"Feature","geometry":{"type":"Point","coordinates":[73.6082853,33.5981521]},"properties":{"source":"osm","osm_id":1019215981,"osm_type":"way","kind":"generation","name":"Karot Hydropower Project","voltage":null,"operator":"Karot Power Company (Pvt.) Ltd","plant_source":"hydro","plant_output":"720 MW","capacity_mw":720.0}},{"type":"Feature","geometry":{"type":"Point","coordinates":[73.5549573,34.8461288]},"properties":{"source":"osm","osm_id":1019507890,"osm_type":"way","kind":"generation","name":"Suki Kinari Hydropower Project","voltage":null,"operator":"SK Hydro","plant_source":"hydro","plant_output":null,"capacity_mw":null}},{"type":"Feature","geometry":{"type":"Point","coordinates":[74.0099016,32.5106221]},"properties":{"source":"osm","osm_id":1032951647,"osm_type":"way","kind":"generation","name":"Shadiwal Hydropower Plant","voltage":null,"operator":"WAPDA","plant_source":"hydro","plant_output":"13.5","capacity_mw":13.5}},{"type":"Feature","geometry":{"type":"Point","coordinates":[70.4767198,33.2077596]},"properties":{"source":"osm","osm_id":1037176426,"osm_type":"way","kind":"generation","name":"KAITU WEIR PROJECT","voltage":null,"operator":"WAPDA","plant_source":"hydro","plant_output":"18MW","capacity_mw":18.0}},{"type":"Feature","geometry":{"type":"Point","coordinates":[70.4440688,33.2093627]},"properties":{"source":"osm","osm_id":1037191355,"osm_type":"way","kind":"generation","name":"Powerhouse IV","voltage":null,"operator":null,"plant_source":"hydro","plant_output":"18.4 MW","capacity_mw":18.4}},{"type":"Feature","geometry":{"type":"Point","coordinates":[71.8689491,34.8543866]},"properties":{"source":"osm","osm_id":1037200328,"osm_type":"way","kind":"generation","name":"Koto Hydro Power Project","voltage":null,"operator":"Energy & Power Department Government of Khyber Pakhtunkhwa","plant_source":"hydro","plant_output":"40.8 MW","capacity_mw":40.8}},{"type":"Feature","geometry":{"type":"Point","coordinates":[75.6283524,35.2736903]},"properties":{"source":"osm","osm_id":1039702154,"osm_type":"way","kind":"generation","name":"Skardu Power House III","voltage":null,"operator":null,"plant_source":"hydro","plant_output":"yes","capacity_mw":null}},{"type":"Feature","geometry":{"type":"Point","coordinates":[67.237578,24.8666979]},"properties":{"source":"osm","osm_id":1083432831,"osm_type":"way","kind":"generation","name":"Rajby Denim","voltage":null,"operator":null,"plant_source":"solar","plant_output":null,"capacity_mw":null}},{"type":"Feature","geometry":{"type":"Point","coordinates":[67.2391284,24.8675963]},"properties":{"source":"osm","osm_id":1083432832,"osm_type":"way","kind":"generation","name":"Zaman Textile Mills Ltd","voltage":null,"operator":null,"plant_source":"solar","plant_output":null,"capacity_mw":null}},{"type":"Feature","geometry":{"type":"Point","coordinates":[68.1739655,28.5828462]},"properties":{"source":"osm","osm_id":1090884327,"osm_type":"way","kind":"generation","name":"Uch Power Plant","voltage":null,"operator":null,"plant_source":"gas","plant_output":"990 MW","capacity_mw":990.0}},{"type":"Feature","geometry":{"type":"Point","coordinates":[73.0836011,33.5586516]},"properties":{"source":"osm","osm_id":1107638388,"osm_type":"way","kind":"generation","name":"Attock House Solar","voltage":null,"operator":null,"plant_source":"solar","plant_output":"1 MW","capacity_mw":1.0}},{"type":"Feature","geometry":{"type":"Point","coordinates":[73.0827247,33.5600349]},"properties":{"source":"osm","osm_id":1107638602,"osm_type":"way","kind":"generation","name":"POL Office Solar","voltage":null,"operator":null,"plant_source":"solar","plant_output":"1 MW","capacity_mw":1.0}},{"type":"Feature","geometry":{"type":"Point","coordinates":[74.3250909,31.392987]},"properties":{"source":"osm","osm_id":1125815272,"osm_type":"way","kind":"generation","name":"Kamal Limited (Garments Division)","voltage":null,"operator":null,"plant_source":"solar","plant_output":null,"capacity_mw":null}},{"type":"Feature","geometry":{"type":"Point","coordinates":[72.8537723,33.6938162]},"properties":{"source":"osm","osm_id":1146104704,"osm_type":"way","kind":"generation","name":"FECTO Solar Farm","voltage":null,"operator":"FECTO","plant_source":"solar","plant_output":"yes","capacity_mw":null}},{"type":"Feature","geometry":{"type":"Point","coordinates":[71.611587,32.9051288]},"properties":{"source":"osm","osm_id":1147168711,"osm_type":"way","kind":"generation","name":"Maple Leaf 40MW Power Plant","voltage":null,"operator":"Maple Leaf Cement","plant_source":"coal","plant_output":"40 MW","capacity_mw":40.0}},{"type":"Feature","geometry":{"type":"Point","coordinates":[75.4588777,35.4368533]},"properties":{"source":"osm","osm_id":1157849126,"osm_type":"way","kind":"generation","name":"Hydel Station Ph-IV Kachura","voltage":null,"operator":null,"plant_source":"hydro","plant_output":"2 MW","capacity_mw":2.0}},{"type":"Feature","geometry":{"type":"Point","coordinates":[72.7227759,33.6922552]},"properties":{"source":"osm","osm_id":1190927721,"osm_type":"way","kind":"generation","name":"Fauji Cement Solar Power Plant","voltage":null,"operator":null,"plant_source":"solar","plant_output":"yes","capacity_mw":null}},{"type":"Feature","geometry":{"type":"Point","coordinates":[71.5635467,30.8941275]},"properties":{"source":"osm","osm_id":1192549768,"osm_type":"way","kind":"generation","name":"Chaubara Solar Farm","voltage":null,"operator":"Zhenfa Pakistan New Energy Company (Pvt.) Ltd","plant_source":"solar","plant_output":"100 MW","capacity_mw":100.0}},{"type":"Feature","geometry":{"type":"Point","coordinates":[73.9034262,31.1242018]},"properties":{"source":"osm","osm_id":1203834363,"osm_type":"way","kind":"generation","name":"\u0646\u0634\u0627\u0637 \u0686\u0648\u0646\u06cc\u0627\u06ba \u067e\u0627\u0648\u0631 \u0644\u0645\u0679\u06cc\u0688","voltage":null,"operator":null,"plant_source":"oil","plant_output":"200 MW","capacity_mw":200.0}},{"type":"Feature","geometry":{"type":"Point","coordinates":[71.5867399,34.0141774]},"properties":{"source":"osm","osm_id":1210931547,"osm_type":"way","kind":"generation","name":"Solar Power Plant by Sami N Sami","voltage":null,"operator":null,"plant_source":"solar","plant_output":null,"capacity_mw":null}},{"type":"Feature","geometry":{"type":"Point","coordinates":[67.1019166,24.8781889]},"properties":{"source":"osm","osm_id":1267313731,"osm_type":"way","kind":"generation","name":"AquaGen (Karsaz Powerplant)","voltage":null,"operator":null,"plant_source":"gas","plant_output":"6 MW","capacity_mw":6.0}},{"type":"Feature","geometry":{"type":"Point","coordinates":[74.8469204,36.6479134]},"properties":{"source":"osm","osm_id":1278491868,"osm_type":"way","kind":"generation","name":"Gircha Power House","voltage":null,"operator":null,"plant_source":"hydro","plant_output":"yes","capacity_mw":null}},{"type":"Feature","geometry":{"type":"Point","coordinates":[67.5060883,24.7961869]},"properties":{"source":"osm","osm_id":1278683722,"osm_type":"way","kind":"generation","name":"Amreli Steels Solar Power project","voltage":null,"operator":null,"plant_source":"solar","plant_output":"yes","capacity_mw":null}},{"type":"Feature","geometry":{"type":"Point","coordinates":[66.7889192,24.8450032]},"properties":{"source":"osm","osm_id":1293009002,"osm_type":"way","kind":"generation","name":"KANUPP-1","voltage":null,"operator":null,"plant_source":"nuclear","plant_output":"yes","capacity_mw":null}},{"type":"Feature","geometry":{"type":"Point","coordinates":[72.5089953,35.2213036]},"properties":{"source":"osm","osm_id":1296530113,"osm_type":"way","kind":"generation","name":"\u062f\u0631\u0627\u0644 \u0688\u06cc\u0645","voltage":null,"operator":null,"plant_source":"hydro","plant_output":"yes","capacity_mw":null}},{"type":"Feature","geometry":{"type":"Point","coordinates":[72.9778808,33.6144987]},"properties":{"source":"osm","osm_id":1310685321,"osm_type":"way","kind":"generation","name":"Rawalpindi Rawalpindi District solar project I","voltage":null,"operator":null,"plant_source":"solar","plant_output":"6.6 MW","capacity_mw":6.6}},{"type":"Feature","geometry":{"type":"Point","coordinates":[67.2647193,24.8717917]},"properties":{"source":"osm","osm_id":1353435851,"osm_type":"way","kind":"generation","name":"Soorty Enterprises","voltage":null,"operator":null,"plant_source":"solar","plant_output":null,"capacity_mw":null}},{"type":"Feature","geometry":{"type":"Point","coordinates":[67.262524,24.869991]},"properties":{"source":"osm","osm_id":1353435852,"osm_type":"way","kind":"generation","name":"Soorty Enterprises","voltage":null,"operator":null,"plant_source":"solar","plant_output":null,"capacity_mw":null}},{"type":"Feature","geometry":{"type":"Point","coordinates":[72.5430143,35.1993005]},"properties":{"source":"osm","osm_id":1360204000,"osm_type":"way","kind":"generation","name":"Daral Khwar Hydropower Project","voltage":null,"operator":"Pakhtunkhwa Energy Development Organization","plant_source":"hydro","plant_output":"36.6 MW","capacity_mw":36.6}},{"type":"Feature","geometry":{"type":"Point","coordinates":[67.9898572,26.560823]},"properties":{"source":"osm","osm_id":1374631689,"osm_type":"way","kind":"generation","name":"Shaheed Benazirabad District solar project","voltage":null,"operator":null,"plant_source":"solar","plant_output":null,"capacity_mw":null}},{"type":"Feature","geometry":{"type":"Point","coordinates":[69.0140626,27.4073571]},"properties":{"source":"osm","osm_id":1374632672,"osm_type":"way","kind":"generation","name":"Helios Power (Pvt.) Limited (Phase 3), Meridian Energy (Pvt.) Ltd (Phase 1), HND Energy (Pvt.) Limited (Phase 2), Scatec Sukkur solar farm","voltage":null,"operator":null,"plant_source":"solar","plant_output":"50 MW","capacity_mw":50.0}},{"type":"Feature","geometry":{"type":"Point","coordinates":[74.0118161,31.256576]},"properties":{"source":"osm","osm_id":1374634071,"osm_type":"way","kind":"generation","name":"Kasur District solar project","voltage":null,"operator":null,"plant_source":"solar","plant_output":"3.5 MW","capacity_mw":3.5}},{"type":"Feature","geometry":{"type":"Point","coordinates":[74.3818335,31.3973863]},"properties":{"source":"osm","osm_id":1374634073,"osm_type":"way","kind":"generation","name":"Pakistan Punjab solar project XV","voltage":null,"operator":null,"plant_source":"solar","plant_output":null,"capacity_mw":null}},{"type":"Feature","geometry":{"type":"Point","coordinates":[74.0885622,31.6857424]},"properties":{"source":"osm","osm_id":1374635133,"osm_type":"way","kind":"generation","name":"Pakistan Punjab solar project XIV","voltage":null,"operator":null,"plant_source":"solar","plant_output":"1.14 MW","capacity_mw":1.14}},{"type":"Feature","geometry":{"type":"Point","coordinates":[73.1673306,31.5843598]},"properties":{"source":"osm","osm_id":1374636118,"osm_type":"way","kind":"generation","name":"Pakistan Punjab solar project XIII","voltage":null,"operator":null,"plant_source":"solar","plant_output":"1.4 MW","capacity_mw":1.4}},{"type":"Feature","geometry":{"type":"Point","coordinates":[73.3767897,31.8793479]},"properties":{"source":"osm","osm_id":1374636319,"osm_type":"way","kind":"generation","name":"Pakistan Punjab solar project VI","voltage":null,"operator":null,"plant_source":"solar","plant_output":"3.6 MW","capacity_mw":3.6}},{"type":"Feature","geometry":{"type":"Point","coordinates":[71.1750103,30.0823571]},"properties":{"source":"osm","osm_id":1374639844,"osm_type":"way","kind":"generation","name":"Muzaffargarh solar project II","voltage":null,"operator":null,"plant_source":"solar","plant_output":"1.4 MW","capacity_mw":1.4}},{"type":"Feature","geometry":{"type":"Point","coordinates":[71.2529335,30.0806577]},"properties":{"source":"osm","osm_id":1374640184,"osm_type":"way","kind":"generation","name":"Muzaffargarh solar project I","voltage":null,"operator":null,"plant_source":"solar","plant_output":"2.2 MW","capacity_mw":2.2}},{"type":"Feature","geometry":{"type":"Point","coordinates":[71.6143907,30.2539389]},"properties":{"source":"osm","osm_id":1374640402,"osm_type":"way","kind":"generation","name":"Multan District solar project","voltage":null,"operator":null,"plant_source":"solar","plant_output":"1.1 MW","capacity_mw":1.1}},{"type":"Feature","geometry":{"type":"Point","coordinates":[71.8824291,30.3767813]},"properties":{"source":"osm","osm_id":1374640613,"osm_type":"way","kind":"generation","name":"Pakistan Punjab solar project XII","voltage":null,"operator":null,"plant_source":"solar","plant_output":"1.4 MW","capacity_mw":1.4}},{"type":"Feature","geometry":{"type":"Point","coordinates":[66.8696943,25.052861]},"properties":{"source":"osm","osm_id":1374642207,"osm_type":"way","kind":"generation","name":"Hub Hub District solar project","voltage":null,"operator":null,"plant_source":"solar","plant_output":"3.7 MW","capacity_mw":3.7}},{"type":"Feature","geometry":{"type":"Point","coordinates":[67.0484367,30.20146]},"properties":{"source":"osm","osm_id":1374642902,"osm_type":"way","kind":"generation","name":"Quetta City Tehsil Quetta District solar project","voltage":null,"operator":null,"plant_source":"solar","plant_output":"3.3 MW","capacity_mw":3.3}},{"type":"Feature","geometry":{"type":"Point","coordinates":[71.7781073,29.3789264]},"properties":{"source":"osm","osm_id":1374643222,"osm_type":"way","kind":"generation","name":"Bahawalpur City Tehsil Bahawalpur District solar project","voltage":null,"operator":null,"plant_source":"solar","plant_output":"2.2 MW","capacity_mw":2.2}},{"type":"Feature","geometry":{"type":"Point","coordinates":[74.5647025,32.5338682]},"properties":{"source":"osm","osm_id":1374643575,"osm_type":"way","kind":"generation","name":"Pakistan Punjab solar project X","voltage":null,"operator":null,"plant_source":"solar","plant_output":"1.7 MW","capacity_mw":1.7}},{"type":"Feature","geometry":{"type":"Point","coordinates":[71.6022187,32.9007046]},"properties":{"source":"osm","osm_id":1374644551,"osm_type":"way","kind":"generation","name":"Pakistan Punjab solar project III","voltage":null,"operator":null,"plant_source":"solar","plant_output":"12.7 MW","capacity_mw":12.7}},{"type":"Feature","geometry":{"type":"Point","coordinates":[71.440047,33.5521248]},"properties":{"source":"osm","osm_id":1374644724,"osm_type":"way","kind":"generation","name":"Kohat Kohat District solar project","voltage":null,"operator":null,"plant_source":"solar","plant_output":"1.6 MW","capacity_mw":1.6}},{"type":"Feature","geometry":{"type":"Point","coordinates":[71.5391412,33.5416249]},"properties":{"source":"osm","osm_id":1374644996,"osm_type":"way","kind":"generation","name":"Kohat District solar project","voltage":null,"operator":null,"plant_source":"solar","plant_output":"5.4 MW","capacity_mw":5.4}},{"type":"Feature","geometry":{"type":"Point","coordinates":[73.1983825,35.3201698]},"properties":{"source":"osm","osm_id":1374645274,"osm_type":"way","kind":"generation","name":"Dasu hydroelectric plant","voltage":null,"operator":null,"plant_source":"hydro","plant_output":"2160 MW","capacity_mw":2160.0}},{"type":"Feature","geometry":{"type":"Point","coordinates":[72.8180748,32.7280998]},"properties":{"source":"osm","osm_id":1374646018,"osm_type":"way","kind":"generation","name":"Pakistan Punjab solar project VIII","voltage":null,"operator":null,"plant_source":"solar","plant_output":"3.4 MW","capacity_mw":3.4}},{"type":"Feature","geometry":{"type":"Point","coordinates":[72.9180193,32.7205766]},"properties":{"source":"osm","osm_id":1374646274,"osm_type":"way","kind":"generation","name":"Pakistan Punjab solar project IV","voltage":null,"operator":null,"plant_source":"solar","plant_output":"12.1 MW","capacity_mw":12.1}},{"type":"Feature","geometry":{"type":"Point","coordinates":[72.9310454,33.0148858]},"properties":{"source":"osm","osm_id":1374646507,"osm_type":"way","kind":"generation","name":"Pakistan Punjab solar project XI","voltage":null,"operator":null,"plant_source":"solar","plant_output":"1.5 MW","capacity_mw":1.5}},{"type":"Feature","geometry":{"type":"Point","coordinates":[73.2847551,33.2164887]},"properties":{"source":"osm","osm_id":1374646956,"osm_type":"way","kind":"generation","name":"Gujar Khan Rawalpindi District solar project","voltage":null,"operator":null,"plant_source":"solar","plant_output":"6.6 MW","capacity_mw":6.6}},{"type":"Feature","geometry":{"type":"Point","coordinates":[72.8300804,33.8339601]},"properties":{"source":"osm","osm_id":1374647810,"osm_type":"way","kind":"generation","name":"Haripur District solar project I","voltage":null,"operator":null,"plant_source":"solar","plant_output":"13.3 MW","capacity_mw":13.3}},{"type":"Feature","geometry":{"type":"Point","coordinates":[72.8744066,33.853074]},"properties":{"source":"osm","osm_id":1374647994,"osm_type":"way","kind":"generation","name":"Haripur District solar project II","voltage":null,"operator":null,"plant_source":"solar","plant_output":"9.7 MW","capacity_mw":9.7}},{"type":"Feature","geometry":{"type":"Point","coordinates":[67.2152849,24.845338]},"properties":{"source":"osm","osm_id":1425404595,"osm_type":"way","kind":"generation","name":"Gul Ahmed Textile Mills Lasani Unit","voltage":null,"operator":null,"plant_source":"solar","plant_output":null,"capacity_mw":null}},{"type":"Feature","geometry":{"type":"Point","coordinates":[76.6017442,35.2004375]},"properties":{"source":"osm","osm_id":1435201434,"osm_type":"way","kind":"generation","name":"Hydel Station Dumsum Phase-I","voltage":null,"operator":null,"plant_source":"hydro","plant_output":"1.2 MW","capacity_mw":1.2}},{"type":"Feature","geometry":{"type":"Point","coordinates":[76.0953693,35.0232409]},"properties":{"source":"osm","osm_id":1435201435,"osm_type":"way","kind":"generation","name":"Hydel Station Tolti Phase-II","voltage":null,"operator":null,"plant_source":"hydro","plant_output":"1 MW","capacity_mw":1.0}},{"type":"Feature","geometry":{"type":"Point","coordinates":[76.5947817,35.199481]},"properties":{"source":"osm","osm_id":1447288362,"osm_type":"way","kind":"generation","name":"Hydel Station Dumsum Phase-II","voltage":null,"operator":null,"plant_source":"hydro","plant_output":"yes","capacity_mw":null}},{"type":"Feature","geometry":{"type":"Point","coordinates":[76.177087,35.2708463]},"properties":{"source":"osm","osm_id":1447293522,"osm_type":"way","kind":"generation","name":"Hydel Station Thalley Phase-II","voltage":null,"operator":"WPDGB","plant_source":"hydro","plant_output":"2 MW","capacity_mw":2.0}},{"type":"Feature","geometry":{"type":"Point","coordinates":[74.7903953,36.5711104]},"properties":{"source":"osm","osm_id":1447304108,"osm_type":"way","kind":"generation","name":"Hydel Station Phase-II Khyber Gojal","voltage":null,"operator":null,"plant_source":"hydro","plant_output":"0.4 MW","capacity_mw":0.4}},{"type":"Feature","geometry":{"type":"Point","coordinates":[73.2570532,34.5878076]},"properties":{"source":"osm","osm_id":1452905135,"osm_type":"way","kind":"generation","name":"Jabori Hydropower Project","voltage":null,"operator":null,"plant_source":"hydro","plant_output":null,"capacity_mw":null}},{"type":"Feature","geometry":{"type":"Point","coordinates":[75.8483327,35.6616335]},"properties":{"source":"osm","osm_id":1452996719,"osm_type":"way","kind":"generation","name":"Testay Hydral Power Station","voltage":null,"operator":null,"plant_source":"hydro","plant_output":"0.32 MW","capacity_mw":0.32}},{"type":"Feature","geometry":{"type":"Point","coordinates":[74.7136743,36.81896]},"properties":{"source":"osm","osm_id":1454312396,"osm_type":"way","kind":"generation","name":"Hydel Station Misgar Gojal","voltage":null,"operator":null,"plant_source":"hydro","plant_output":"0.18 MW","capacity_mw":0.18}},{"type":"Feature","geometry":{"type":"Point","coordinates":[74.2462881,36.1152252]},"properties":{"source":"osm","osm_id":1462378224,"osm_type":"way","kind":"generation","name":"Nalter Power House Ph-IV","voltage":null,"operator":null,"plant_source":"hydro","plant_output":"18 MW","capacity_mw":18.0}},{"type":"Feature","geometry":{"type":"Point","coordinates":[74.5647477,35.7762886]},"properties":{"source":"osm","osm_id":1462378229,"osm_type":"way","kind":"generation","name":"Parri Power House","voltage":null,"operator":null,"plant_source":"hydro","plant_output":"0.85MW","capacity_mw":0.85}},{"type":"Feature","geometry":{"type":"Point","coordinates":[74.2690963,36.0881479]},"properties":{"source":"osm","osm_id":1462378230,"osm_type":"way","kind":"generation","name":"Naltar-V Hydropower","voltage":null,"operator":null,"plant_source":"hydro","plant_output":"14 MW","capacity_mw":14.0}},{"type":"Feature","geometry":{"type":"Point","coordinates":[72.6264243,35.5173996]},"properties":{"source":"osm","osm_id":1473906242,"osm_type":"way","kind":"generation","name":"Gorkin Matiltan","voltage":null,"operator":null,"plant_source":"hydro","plant_output":null,"capacity_mw":null}},{"type":"Feature","geometry":{"type":"Point","coordinates":[73.5980827,30.8827662]},"properties":{"source":"osm","osm_id":1473910772,"osm_type":"way","kind":"generation","name":"Renala","voltage":null,"operator":null,"plant_source":"hydro","plant_output":null,"capacity_mw":null}},{"type":"Feature","geometry":{"type":"Point","coordinates":[73.4543297,32.5895354]},"properties":{"source":"osm","osm_id":1473911292,"osm_type":"way","kind":"generation","name":"Shahtaj","voltage":null,"operator":null,"plant_source":"biomass","plant_output":null,"capacity_mw":null}},{"type":"Feature","geometry":{"type":"Point","coordinates":[75.2116731,35.5943053]},"properties":{"source":"osm","osm_id":1475260363,"osm_type":"way","kind":"generation","name":"Hydel Station Mendi Ph-II","voltage":null,"operator":null,"plant_source":"hydro","plant_output":"2 MW","capacity_mw":2.0}},{"type":"Feature","geometry":{"type":"Point","coordinates":[67.4614335,24.571277]},"properties":{"source":"osm","osm_id":8395038,"osm_type":"relation","kind":"generation","name":"Foundation Wind Energy 2","voltage":null,"operator":"Fauji Foundation Wind Energy-II Limited","plant_source":"wind","plant_output":"50 MW","capacity_mw":50.0}},{"type":"Feature","geometry":{"type":"Point","coordinates":[67.4295013,24.6088058]},"properties":{"source":"osm","osm_id":8395039,"osm_type":"relation","kind":"generation","name":"Tenaga Generasi Limited","voltage":null,"operator":"Tenaga Generasi Limited","plant_source":"wind","plant_output":"49.5 MW","capacity_mw":49.5}},{"type":"Feature","geometry":{"type":"Point","coordinates":[67.4010554,24.605659]},"properties":{"source":"osm","osm_id":8395040,"osm_type":"relation","kind":"generation","name":"Foundation Wind Energy 1","voltage":null,"operator":"Fauji Foundation Wind Energy-I Limited","plant_source":"wind","plant_output":"50 MW","capacity_mw":50.0}},{"type":"Feature","geometry":{"type":"Point","coordinates":[67.488771,24.670698]},"properties":{"source":"osm","osm_id":8395041,"osm_type":"relation","kind":"generation","name":"Hydrochina Dawood Power","voltage":null,"operator":"Hydro China Dawood Power","plant_source":"wind","plant_output":"49.5 MW","capacity_mw":49.5}},{"type":"Feature","geometry":{"type":"Point","coordinates":[67.8552699,25.1029451]},"properties":{"source":"osm","osm_id":8395043,"osm_type":"relation","kind":"generation","name":"UEP 1","voltage":null,"operator":"United Energy Pakistan Pvt. Limited","plant_source":"wind","plant_output":"66 MW","capacity_mw":66.0}},{"type":"Feature","geometry":{"type":"Point","coordinates":[67.8025885,25.1176322]},"properties":{"source":"osm","osm_id":8395044,"osm_type":"relation","kind":"generation","name":"UEP 2","voltage":null,"operator":"United Energy Pakistan Pvt. Ltd","plant_source":"wind","plant_output":"33 MW","capacity_mw":33.0}},{"type":"Feature","geometry":{"type":"Point","coordinates":[67.8540393,24.9528288]},"properties":{"source":"osm","osm_id":8395045,"osm_type":"relation","kind":"generation","name":"Tapal Wind Energy","voltage":null,"operator":"Tapal Wind Energy (Pvt.) Limited","plant_source":"wind","plant_output":"30 MW","capacity_mw":30.0}},{"type":"Feature","geometry":{"type":"Point","coordinates":[67.7584791,24.9216766]},"properties":{"source":"osm","osm_id":8395048,"osm_type":"relation","kind":"generation","name":"Liberty Wind Power 2","voltage":null,"operator":"Liberty Wind Power 2 (Pvt.) Limited","plant_source":"wind","plant_output":"50 MW","capacity_mw":50.0}},{"type":"Feature","geometry":{"type":"Point","coordinates":[68.0029572,25.0928927]},"properties":{"source":"osm","osm_id":9459591,"osm_type":"relation","kind":"generation","name":"Master Wind Energy","voltage":null,"operator":"Master Wind Energy (Pvt.) Ltd","plant_source":"wind","plant_output":"49.5 MW","capacity_mw":49.5}},{"type":"Feature","geometry":{"type":"Point","coordinates":[67.9931596,25.0690438]},"properties":{"source":"osm","osm_id":9459592,"osm_type":"relation","kind":"generation","name":"FFC Energy","voltage":null,"operator":"Fauji Fertilizer Company Energy Limited","plant_source":"wind","plant_output":"49.5 MW","capacity_mw":49.5}},{"type":"Feature","geometry":{"type":"Point","coordinates":[67.931958,25.0840893]},"properties":{"source":"osm","osm_id":9459593,"osm_type":"relation","kind":"generation","name":"Three Gorges First Wind Farm","voltage":null,"operator":"Three Gorges First Wind Farm Pakistan (Private) Limited","plant_source":"wind","plant_output":"49.5 MW","capacity_mw":49.5}},{"type":"Feature","geometry":{"type":"Point","coordinates":[67.9854695,25.0533658]},"properties":{"source":"osm","osm_id":9459594,"osm_type":"relation","kind":"generation","name":"Zorlu Enerji Pakistan","voltage":null,"operator":"Zorlu Enerji Pakistan (Pvt.) Ltd","plant_source":"wind","plant_output":"56.4 MW","capacity_mw":56.4}},{"type":"Feature","geometry":{"type":"Point","coordinates":[67.9200307,25.1171273]},"properties":{"source":"osm","osm_id":9459915,"osm_type":"relation","kind":"generation","name":"Three Gorges Second Wind Farm","voltage":null,"operator":"Three Gorges 2nd Wind Firm Pakistan (Pvt.) Limitedd","plant_source":"wind","plant_output":"49.5 MW","capacity_mw":49.5}},{"type":"Feature","geometry":{"type":"Point","coordinates":[67.9290086,25.1025455]},"properties":{"source":"osm","osm_id":9459916,"osm_type":"relation","kind":"generation","name":"Sapphire Wind Power Plant","voltage":null,"operator":"Sapphire Wind Power Company Limited","plant_source":"wind","plant_output":"52.8 MW","capacity_mw":52.8}},{"type":"Feature","geometry":{"type":"Point","coordinates":[67.9612466,25.1554606]},"properties":{"source":"osm","osm_id":9459964,"osm_type":"relation","kind":"generation","name":"Gul Ahmed Wind Power Limited","voltage":null,"operator":"Gul Ahmed Energy Limited","plant_source":"wind","plant_output":"50 MW","capacity_mw":50.0}},{"type":"Feature","geometry":{"type":"Point","coordinates":[67.9629969,25.1690093]},"properties":{"source":"osm","osm_id":9459965,"osm_type":"relation","kind":"generation","name":"Metro Power Plant","voltage":null,"operator":"Metro Power Company Limited","plant_source":"wind","plant_output":"50 MW","capacity_mw":50.0}},{"type":"Feature","geometry":{"type":"Point","coordinates":[67.9330082,25.138585]},"properties":{"source":"osm","osm_id":9459978,"osm_type":"relation","kind":"generation","name":"Sachal","voltage":null,"operator":"Sachal Energy Development Pvt. Ltd.","plant_source":"wind","plant_output":"49.5 MW","capacity_mw":49.5}},{"type":"Feature","geometry":{"type":"Point","coordinates":[67.9498265,25.1467158]},"properties":{"source":"osm","osm_id":9459979,"osm_type":"relation","kind":"generation","name":"Lucky Star Yunus","voltage":null,"operator":"Yunus Energy Limited","plant_source":"wind","plant_output":"50 MW","capacity_mw":50.0}},{"type":"Feature","geometry":{"type":"Point","coordinates":[68.0537078,25.1378931]},"properties":{"source":"osm","osm_id":9459980,"osm_type":"relation","kind":"generation","name":"Jhimpir Power","voltage":null,"operator":"Jhimpir Power (Pvt.) Limited","plant_source":"wind","plant_output":"49.735 MW","capacity_mw":49.735}},{"type":"Feature","geometry":{"type":"Point","coordinates":[68.0599303,25.1452492]},"properties":{"source":"osm","osm_id":9459981,"osm_type":"relation","kind":"generation","name":"Hawa Energy","voltage":null,"operator":"Hawa Energy (Pvt.) Limited","plant_source":"wind","plant_output":"49.735 MW","capacity_mw":49.735}},{"type":"Feature","geometry":{"type":"Point","coordinates":[67.9246136,25.1284823]},"properties":{"source":"osm","osm_id":9459987,"osm_type":"relation","kind":"generation","name":"Three Gorges Third Wind Farm","voltage":null,"operator":"Three Gorges Third Wind Firm Pakistan (Pvt.) Limited","plant_source":"wind","plant_output":"49.5 MW","capacity_mw":49.5}},{"type":"Feature","geometry":{"type":"Point","coordinates":[74.2634125,32.2422986]},"properties":{"source":"osm","osm_id":11619499,"osm_type":"relation","kind":"generation","name":"Nandipur Hydel Power Station","voltage":null,"operator":"WAPDA","plant_source":"hydro","plant_output":"13.8 MW","capacity_mw":13.8}},{"type":"Feature","geometry":{"type":"Point","coordinates":[70.5319841,33.0330286]},"properties":{"source":"osm","osm_id":11741601,"osm_type":"relation","kind":"generation","name":"Kurram Garhi Hydropower Plant","voltage":null,"operator":"WAPDA","plant_source":"hydro","plant_output":"4 MW","capacity_mw":4.0}},{"type":"Feature","geometry":{"type":"Point","coordinates":[71.8303396,29.308091]},"properties":{"source":"osm","osm_id":11789995,"osm_type":"relation","kind":"generation","name":"Quaid-e-Azam Solar Park","voltage":null,"operator":"QA Solar Power Ltd","plant_source":"solar","plant_output":"400 MW","capacity_mw":400.0}},{"type":"Feature","geometry":{"type":"Point","coordinates":[67.5584934,24.7140221]},"properties":{"source":"osm","osm_id":13362230,"osm_type":"relation","kind":"generation","name":"Gharo Solar Power Plant","voltage":null,"operator":null,"plant_source":"solar","plant_output":"50 MW","capacity_mw":50.0}},{"type":"Feature","geometry":{"type":"Point","coordinates":[72.7031933,34.0831444]},"properties":{"source":"osm","osm_id":16114441,"osm_type":"relation","kind":"generation","name":"Terbela Power Station","voltage":null,"operator":"WAPDA","plant_source":"hydro","plant_output":"4888 MW","capacity_mw":4888.0}},{"type":"Feature","geometry":{"type":"Point","coordinates":[67.8630333,24.9634109]},"properties":{"source":"osm","osm_id":16132531,"osm_type":"relation","kind":"generation","name":"Hartford Alternative Energy","voltage":null,"operator":"Hartford Alternative Energy (Pvt.) Limited","plant_source":"wind","plant_output":"49.3 MW","capacity_mw":49.3}},{"type":"Feature","geometry":{"type":"Point","coordinates":[67.4748261,24.6970808]},"properties":{"source":"osm","osm_id":16132532,"osm_type":"relation","kind":"generation","name":"Zephyr Power","voltage":null,"operator":"Zephyr Power (Pvt.) Ltd","plant_source":"wind","plant_output":"50 MW","capacity_mw":50.0}},{"type":"Feature","geometry":{"type":"Point","coordinates":[67.7164489,25.0094386]},"properties":{"source":"osm","osm_id":16132533,"osm_type":"relation","kind":"generation","name":"Gul Ahmed Electric","voltage":null,"operator":"Gul Ahmed Electric Limited","plant_source":"wind","plant_output":"50 MW","capacity_mw":50.0}},{"type":"Feature","geometry":{"type":"Point","coordinates":[67.7036829,24.9910676]},"properties":{"source":"osm","osm_id":16132534,"osm_type":"relation","kind":"generation","name":"Metro Wind Power","voltage":null,"operator":"Metro Wind Power Limited","plant_source":"wind","plant_output":"60 MW","capacity_mw":60.0}},{"type":"Feature","geometry":{"type":"Point","coordinates":[67.7320378,25.0108705]},"properties":{"source":"osm","osm_id":16132535,"osm_type":"relation","kind":"generation","name":"Lakeside Energy","voltage":null,"operator":"Lakeside Energy (Pvt.) Limited","plant_source":"wind","plant_output":"50 MW","capacity_mw":50.0}},{"type":"Feature","geometry":{"type":"Point","coordinates":[67.7587903,25.0007885]},"properties":{"source":"osm","osm_id":16132536,"osm_type":"relation","kind":"generation","name":"Nasda Green Energy","voltage":null,"operator":"Nasda Green Energy (Private) Limited (NGEPL)","plant_source":"wind","plant_output":"50 MW","capacity_mw":50.0}},{"type":"Feature","geometry":{"type":"Point","coordinates":[67.7688056,24.9393739]},"properties":{"source":"osm","osm_id":16132537,"osm_type":"relation","kind":"generation","name":"Din Energy","voltage":null,"operator":"Din Energy Limited","plant_source":"wind","plant_output":"50 MW","capacity_mw":50.0}},{"type":"Feature","geometry":{"type":"Point","coordinates":[67.7605525,24.9323788]},"properties":{"source":"osm","osm_id":16132538,"osm_type":"relation","kind":"generation","name":"Liberty Wind Power 1","voltage":null,"operator":"Liberty Wind Power 1 (Pvt.) Limited","plant_source":"wind","plant_output":"50 MW","capacity_mw":50.0}},{"type":"Feature","geometry":{"type":"Point","coordinates":[68.0615258,25.1134135]},"properties":{"source":"osm","osm_id":16132539,"osm_type":"relation","kind":"generation","name":"Tricom Wind Power","voltage":null,"operator":"Tricom Wind Power (Private) Limited","plant_source":"wind","plant_output":"50 MW","capacity_mw":50.0}},{"type":"Feature","geometry":{"type":"Point","coordinates":[68.1444934,25.3846136]},"properties":{"source":"osm","osm_id":16132540,"osm_type":"relation","kind":"generation","name":"Master Green Energy","voltage":null,"operator":"Master Green Energy Limited","plant_source":"wind","plant_output":"50 MW","capacity_mw":50.0}},{"type":"Feature","geometry":{"type":"Point","coordinates":[67.8388757,24.9536185]},"properties":{"source":"osm","osm_id":16132541,"osm_type":"relation","kind":"generation","name":"ACT2 Wind","voltage":null,"operator":"ACT2 Wind (Pvt.) Limited","plant_source":"wind","plant_output":"50 MW","capacity_mw":50.0}},{"type":"Feature","geometry":{"type":"Point","coordinates":[67.8932923,24.9757297]},"properties":{"source":"osm","osm_id":16132542,"osm_type":"relation","kind":"generation","name":"Artistic Wind Power","voltage":null,"operator":"Artistic Wind Power (Pvt.) Limited","plant_source":"wind","plant_output":"50 MW","capacity_mw":50.0}},{"type":"Feature","geometry":{"type":"Point","coordinates":[67.7274352,24.9222906]},"properties":{"source":"osm","osm_id":16132543,"osm_type":"relation","kind":"generation","name":"Indus Wind Energy","voltage":null,"operator":"Indus Wind Energy Limited","plant_source":"wind","plant_output":"50 MW","capacity_mw":50.0}},{"type":"Feature","geometry":{"type":"Point","coordinates":[67.8328246,25.0691121]},"properties":{"source":"osm","osm_id":16132544,"osm_type":"relation","kind":"generation","name":"Tricon Boston A","voltage":null,"operator":"Tricon Boston Consulting Corporation (Pvt.) Limited, Project-A","plant_source":"wind","plant_output":"49.735 MW","capacity_mw":49.735}},{"type":"Feature","geometry":{"type":"Point","coordinates":[67.8242925,25.0590059]},"properties":{"source":"osm","osm_id":16132545,"osm_type":"relation","kind":"generation","name":"Tricon Boston B","voltage":null,"operator":"Tricon Boston Consulting Corporation (Pvt.) Limited, Project-B","plant_source":"wind","plant_output":"49.735 MW","capacity_mw":49.735}},{"type":"Feature","geometry":{"type":"Point","coordinates":[67.8186304,25.0481407]},"properties":{"source":"osm","osm_id":16132546,"osm_type":"relation","kind":"generation","name":"Tricon Boston C","voltage":null,"operator":"Tricon Boston Consulting Corporation (Pvt.) Limited, Project-C","plant_source":"wind","plant_output":"49.735 MW","capacity_mw":49.735}},{"type":"Feature","geometry":{"type":"Point","coordinates":[67.5356794,24.71595]},"properties":{"source":"osm","osm_id":16264523,"osm_type":"relation","kind":"generation","name":"Oursun Pakistan","voltage":null,"operator":null,"plant_source":"solar","plant_output":"50 MW","capacity_mw":50.0}},{"type":"Feature","geometry":{"type":"Point","coordinates":[71.8159717,32.0945454]},"properties":{"source":"osm","osm_id":16264537,"osm_type":"relation","kind":"generation","name":"AJ Power","voltage":null,"operator":null,"plant_source":"solar","plant_output":"12 MW","capacity_mw":12.0}},{"type":"Feature","geometry":{"type":"Point","coordinates":[67.2750327,24.8141969]},"properties":{"source":"osm","osm_id":17548621,"osm_type":"relation","kind":"generation","name":"Lucky Electric Power Company","voltage":null,"operator":"Lucky Electric Power Company","plant_source":"coal","plant_output":"660 MW","capacity_mw":660.0}},{"type":"Feature","geometry":{"type":"Point","coordinates":[71.8185507,34.9313189]},"properties":{"source":"osm","osm_id":20742907,"osm_type":"relation","kind":"generation","name":"Hayaserai Power Grid Station","voltage":null,"operator":null,"plant_source":"hydro","plant_output":"yes","capacity_mw":null}}]}