{"type":"FeatureCollection","features":[{"type":"Feature","geometry":{"type":"Point","coordinates":[74.9991507,13.7030919]},"properties":{"source":"osm","osm_id":1659317774,"osm_type":"node","kind":"generation","name":"Varahi underground Powerhouse","voltage":null,"operator":"Karnataka Power Corporation Limited","plant_source":"hydro","plant_output":"460 MW","capacity_mw":460.0}},{"type":"Feature","geometry":{"type":"Point","coordinates":[76.3661909,32.2306755]},"properties":{"source":"osm","osm_id":2377020712,"osm_type":"node","kind":"generation","name":"Thathri Hydel Plant","voltage":null,"operator":null,"plant_source":"hydro","plant_output":null,"capacity_mw":null}},{"type":"Feature","geometry":{"type":"Point","coordinates":[77.7968301,30.5570903]},"properties":{"source":"osm","osm_id":3886020110,"osm_type":"node","kind":"generation","name":"Chibro Power Plant","voltage":null,"operator":"Uttarakhand Jal Vidyut Nigam Limited","plant_source":"hydro","plant_output":"240 MW","capacity_mw":240.0}},{"type":"Feature","geometry":{"type":"Point","coordinates":[74.0688891,34.1141588]},"properties":{"source":"osm","osm_id":4190775707,"osm_type":"node","kind":"generation","name":"Uri I","voltage":null,"operator":null,"plant_source":"hydro","plant_output":"480 MW","capacity_mw":480.0}},{"type":"Feature","geometry":{"type":"Point","coordinates":[73.97745,34.1039654]},"properties":{"source":"osm","osm_id":4190775708,"osm_type":"node","kind":"generation","name":"Uri II","voltage":null,"operator":null,"plant_source":"hydro","plant_output":"240 MW","capacity_mw":240.0}},{"type":"Feature","geometry":{"type":"Point","coordinates":[75.762121,33.2868857]},"properties":{"source":"osm","osm_id":4194369572,"osm_type":"node","kind":"generation","name":"Dul Hasti Hydroelectric Plant","voltage":null,"operator":"NHPC Limited","plant_source":"hydro","plant_output":"390 MW","capacity_mw":390.0}},{"type":"Feature","geometry":{"type":"Point","coordinates":[79.2355603,21.6558577]},"properties":{"source":"osm","osm_id":7681010891,"osm_type":"node","kind":"generation","name":"Pench hydro power station","voltage":null,"operator":"Madhya Pradesh Power Generating Company Limited","plant_source":"hydro","plant_output":"160 MW","capacity_mw":160.0}},{"type":"Feature","geometry":{"type":"Point","coordinates":[76.8596246,9.7892706]},"properties":{"source":"osm","osm_id":7685398338,"osm_type":"node","kind":"generation","name":"Idukki hydro power station","voltage":null,"operator":"Kerala State Electricity Board","plant_source":"hydro","plant_output":"780 MW","capacity_mw":780.0}},{"type":"Feature","geometry":{"type":"Point","coordinates":[74.6448791,34.4635286]},"properties":{"source":"osm","osm_id":7688030332,"osm_type":"node","kind":"generation","name":"Kishanganga Hydroelectric Plant","voltage":null,"operator":"NHPC Limited","plant_source":"hydro","plant_output":"330 MW","capacity_mw":330.0}},{"type":"Feature","geometry":{"type":"Point","coordinates":[77.8225297,31.055959]},"properties":{"source":"osm","osm_id":8681472939,"osm_type":"node","kind":"generation","name":"Sawra Kuddu hydro power station","voltage":null,"operator":null,"plant_source":"hydro","plant_output":"111 MW","capacity_mw":111.0}},{"type":"Feature","geometry":{"type":"Point","coordinates":[77.9904419,31.5638104]},"properties":{"source":"osm","osm_id":9378529623,"osm_type":"node","kind":"generation","name":"Sanjay Vidyut hydro power station","voltage":null,"operator":null,"plant_source":"hydro","plant_output":"120 MW","capacity_mw":120.0}},{"type":"Feature","geometry":{"type":"Point","coordinates":[76.6008666,11.5227616]},"properties":{"source":"osm","osm_id":9546484166,"osm_type":"node","kind":"generation","name":"PUSHEP","voltage":null,"operator":"TANGEDCO","plant_source":"hydro","plant_output":"150 MW","capacity_mw":150.0}},{"type":"Feature","geometry":{"type":"Point","coordinates":[86.818955,23.7883063]},"properties":{"source":"osm","osm_id":9547812640,"osm_type":"node","kind":"generation","name":"Maithon hydroelectric power station","voltage":null,"operator":null,"plant_source":"hydro","plant_output":"63.2 MW","capacity_mw":63.2}},{"type":"Feature","geometry":{"type":"Point","coordinates":[77.2065604,32.2251954]},"properties":{"source":"osm","osm_id":9567062291,"osm_type":"node","kind":"generation","name":"Allian Duhangan Hydroelectric Power Plant","voltage":null,"operator":"ADHPL","plant_source":"hydro","plant_output":"192 MW","capacity_mw":192.0}},{"type":"Feature","geometry":{"type":"Point","coordinates":[77.0433748,10.410421]},"properties":{"source":"osm","osm_id":9567098999,"osm_type":"node","kind":"generation","name":"Kadamparai Hydroelectric Power Plant","voltage":null,"operator":"Tamil Nadu Generation and Distribution Corporation","plant_source":"hydro","plant_output":"400 MW","capacity_mw":400.0}},{"type":"Feature","geometry":{"type":"Point","coordinates":[78.0600393,31.0417705]},"properties":{"source":"osm","osm_id":13345181398,"osm_type":"node","kind":"generation","name":"Naitwar Mori Hydro Power Station","voltage":null,"operator":"SJVN","plant_source":"hydro","plant_output":"60 MW","capacity_mw":60.0}},{"type":"Feature","geometry":{"type":"Point","coordinates":[80.2697294,13.0981662]},"properties":{"source":"osm","osm_id":28342737,"osm_type":"way","kind":"generation","name":"Basin Bridge Gas Turbine Power Station","voltage":null,"operator":"Tamil Nadu State Electricity Board","plant_source":"oil","plant_output":"120 MW","capacity_mw":120.0}},{"type":"Feature","geometry":{"type":"Point","coordinates":[77.3264173,30.1054227]},"properties":{"source":"osm","osm_id":28396309,"osm_type":"way","kind":"generation","name":"Deenbandhu Chhotu Ram Thermal Power Station","voltage":null,"operator":"Haryana Power Generation Corporation Limited","plant_source":"coal","plant_output":"600 MW","capacity_mw":600.0}},{"type":"Feature","geometry":{"type":"Point","coordinates":[72.5933046,23.071342]},"properties":{"source":"osm","osm_id":29492754,"osm_type":"way","kind":"generation","name":"AMGEN","voltage":null,"operator":"Torrent Power","plant_source":"coal","plant_output":"362 MW","capacity_mw":362.0}},{"type":"Feature","geometry":{"type":"Point","coordinates":[80.3094811,13.1995006]},"properties":{"source":"osm","osm_id":30738573,"osm_type":"way","kind":"generation","name":"Ennore Thermal Power Station","voltage":null,"operator":"Tamil Nadu Generation and Distribution Corporation","plant_source":"coal","plant_output":"450 MW","capacity_mw":450.0}},{"type":"Feature","geometry":{"type":"Point","coordinates":[77.3599278,28.3454961]},"properties":{"source":"osm","osm_id":65453989,"osm_type":"way","kind":"generation","name":"Faridabad Thermal Power Plant","voltage":null,"operator":"NTPC","plant_source":"gas","plant_output":"430 MW","capacity_mw":430.0}},{"type":"Feature","geometry":{"type":"Point","coordinates":[75.8144493,25.1709673]},"properties":{"source":"osm","osm_id":67195450,"osm_type":"way","kind":"generation","name":"Kota Thermal Power Station","voltage":null,"operator":"Rajasthan Rajya Vidyut Utpadan Nigam","plant_source":"coal","plant_output":"1240 MW","capacity_mw":1240.0}},{"type":"Feature","geometry":{"type":"Point","coordinates":[82.9815099,24.450833]},"properties":{"source":"osm","osm_id":77160913,"osm_type":"way","kind":"generation","name":"Obra Thermal Power Station","voltage":null,"operator":"Uttar Pradesh Rajya Vidyut Utpadan Nigam Limited","plant_source":"coal","plant_output":"2320 MW","capacity_mw":2320.0}},{"type":"Feature","geometry":{"type":"Point","coordinates":[77.101785,28.7330743]},"properties":{"source":"osm","osm_id":78542610,"osm_type":"way","kind":"generation","name":"Rithala Power Plant","voltage":null,"operator":null,"plant_source":"gas","plant_output":"108 MW","capacity_mw":108.0}},{"type":"Feature","geometry":{"type":"Point","coordinates":[87.8713127,22.4178163]},"properties":{"source":"osm","osm_id":84517895,"osm_type":"way","kind":"generation","name":"Kolaghat Power Plant","voltage":null,"operator":"West Bengal Power Development Corporation","plant_source":"coal","plant_output":"840 MW","capacity_mw":840.0}},{"type":"Feature","geometry":{"type":"Point","coordinates":[83.5020951,26.0844504]},"properties":{"source":"osm","osm_id":88004014,"osm_type":"way","kind":"generation","name":"Sarai Sadi","voltage":null,"operator":null,"plant_source":"solar","plant_output":"100 kW","capacity_mw":0.1}},{"type":"Feature","geometry":{"type":"Point","coordinates":[85.1937858,20.8531792]},"properties":{"source":"osm","osm_id":90989998,"osm_type":"way","kind":"generation","name":"Angul Smelter power station","voltage":null,"operator":"National Aluminum Co Ltd","plant_source":"coal","plant_output":"1200 MW","capacity_mw":1200.0}},{"type":"Feature","geometry":{"type":"Point","coordinates":[75.8337837,30.7831379]},"properties":{"source":"osm","osm_id":97363540,"osm_type":"way","kind":"generation","name":"Mini Power Plant","voltage":null,"operator":null,"plant_source":"hydro","plant_output":null,"capacity_mw":null}},{"type":"Feature","geometry":{"type":"Point","coordinates":[80.1723948,12.5570495]},"properties":{"source":"osm","osm_id":98366375,"osm_type":"way","kind":"generation","name":"Madras Atomic Power Station","voltage":null,"operator":null,"plant_source":"nuclear","plant_output":"440 MW","capacity_mw":440.0}},{"type":"Feature","geometry":{"type":"Point","coordinates":[79.2888777,19.9995167]},"properties":{"source":"osm","osm_id":101962605,"osm_type":"way","kind":"generation","name":"Chandrapur Super Thermal Power Station","voltage":null,"operator":"Maharashtra State Power Generation Company","plant_source":"coal","plant_output":"2920 MW","capacity_mw":2920.0}},{"type":"Feature","geometry":{"type":"Point","coordinates":[80.3277584,13.2489467]},"properties":{"source":"osm","osm_id":102546589,"osm_type":"way","kind":"generation","name":"North Chennai Thermal Station","voltage":null,"operator":"Tamil Nadu Generation and Distribution Corporation","plant_source":"coal","plant_output":"1830 MW","capacity_mw":1830.0}},{"type":"Feature","geometry":{"type":"Point","coordinates":[77.5713988,13.0162917]},"properties":{"source":"osm","osm_id":102654158,"osm_type":"way","kind":"generation","name":"Diesel Captive Power Station","voltage":null,"operator":null,"plant_source":"diesel","plant_output":null,"capacity_mw":null}},{"type":"Feature","geometry":{"type":"Point","coordinates":[77.6157433,28.5926623]},"properties":{"source":"osm","osm_id":103170709,"osm_type":"way","kind":"generation","name":"Dadri Powerplant","voltage":null,"operator":"NTPC","plant_source":"coal;gas","plant_output":"2637 MW","capacity_mw":2637.0}},{"type":"Feature","geometry":{"type":"Point","coordinates":[78.4079725,28.1553228]},"properties":{"source":"osm","osm_id":104567860,"osm_type":"way","kind":"generation","name":"Narora Atomic Power Station","voltage":null,"operator":null,"plant_source":"nuclear","plant_output":"440 MW","capacity_mw":440.0}},{"type":"Feature","geometry":{"type":"Point","coordinates":[74.0173417,29.1716299]},"properties":{"source":"osm","osm_id":104805106,"osm_type":"way","kind":"generation","name":"Suratgarh Super Thermal Power Plant","voltage":null,"operator":"Rajasthan Rajya Vidyut Utpadan Nigam Ltd","plant_source":"coal","plant_output":"2820 MW","capacity_mw":2820.0}},{"type":"Feature","geometry":{"type":"Point","coordinates":[77.6017407,30.350802]},"properties":{"source":"osm","osm_id":105646132,"osm_type":"way","kind":"generation","name":"Khara Power Plant","voltage":null,"operator":"Uttar Pradesh Rajya Vidyut Utpadan Nigam Limited","plant_source":"hydro","plant_output":"72 MW","capacity_mw":72.0}},{"type":"Feature","geometry":{"type":"Point","coordinates":[87.8937874,24.773986]},"properties":{"source":"osm","osm_id":114812765,"osm_type":"way","kind":"generation","name":"Farakka Super Thermal Power Station","voltage":null,"operator":"NTPC","plant_source":"coal","plant_output":"2100 MW","capacity_mw":2100.0}},{"type":"Feature","geometry":{"type":"Point","coordinates":[73.361373,22.8730665]},"properties":{"source":"osm","osm_id":116801207,"osm_type":"way","kind":"generation","name":"Wanakbori Thermal Power Station","voltage":null,"operator":"Gujarat State Electricity Corporation Limited","plant_source":"coal","plant_output":"2270 MW","capacity_mw":2270.0}},{"type":"Feature","geometry":{"type":"Point","coordinates":[72.7504785,19.953102]},"properties":{"source":"osm","osm_id":116833091,"osm_type":"way","kind":"generation","name":"Dahanu Thermal Power Station","voltage":null,"operator":"Adani Power","plant_source":"coal","plant_output":"500 MW","capacity_mw":500.0}},{"type":"Feature","geometry":{"type":"Point","coordinates":[86.4662777,23.602324]},"properties":{"source":"osm","osm_id":117033098,"osm_type":"way","kind":"generation","name":"Santhaldih","voltage":null,"operator":"West Bengal Power Development Corporation","plant_source":"coal","plant_output":"500 MW","capacity_mw":500.0}},{"type":"Feature","geometry":{"type":"Point","coordinates":[86.1231162,23.7379135]},"properties":{"source":"osm","osm_id":117580758,"osm_type":"way","kind":"generation","name":"Chandrapura Thermal Power Station","voltage":null,"operator":"Damodar Valley Corporation","plant_source":"coal","plant_output":"500 MW","capacity_mw":500.0}},{"type":"Feature","geometry":{"type":"Point","coordinates":[87.3040458,23.5182601]},"properties":{"source":"osm","osm_id":118649859,"osm_type":"way","kind":"generation","name":"Durgapur Projects Limited Power Station","voltage":null,"operator":null,"plant_source":"coal","plant_output":"550 MW","capacity_mw":550.0}},{"type":"Feature","geometry":{"type":"Point","coordinates":[87.1366381,23.460457]},"properties":{"source":"osm","osm_id":118746349,"osm_type":"way","kind":"generation","name":"Mejia Thermal Power Station","voltage":null,"operator":"Damodar Valley Corporation","plant_source":"coal","plant_output":"2340 MW","capacity_mw":2340.0}},{"type":"Feature","geometry":{"type":"Point","coordinates":[76.5491663,31.2131453]},"properties":{"source":"osm","osm_id":122030564,"osm_type":"way","kind":"generation","name":"Kotla Power House","voltage":null,"operator":"Bhakra Beas Management Board","plant_source":"hydro","plant_output":"77.34 MW","capacity_mw":77.34}},{"type":"Feature","geometry":{"type":"Point","coordinates":[76.493939,31.2713678]},"properties":{"source":"osm","osm_id":122030566,"osm_type":"way","kind":"generation","name":"Anandpur Sahib Power House I","voltage":null,"operator":"Punjab State Power Corporation","plant_source":"hydro","plant_output":"67 MW","capacity_mw":67.0}},{"type":"Feature","geometry":{"type":"Point","coordinates":[76.4920627,31.2677387]},"properties":{"source":"osm","osm_id":122030588,"osm_type":"way","kind":"generation","name":"Ganguwal Power House","voltage":null,"operator":"Bhakra Beas Management Board","plant_source":"hydro","plant_output":"76.39 MW","capacity_mw":76.39}},{"type":"Feature","geometry":{"type":"Point","coordinates":[75.7129393,31.9547532]},"properties":{"source":"osm","osm_id":122316765,"osm_type":"way","kind":"generation","name":"Mukerian Hydel Project III","voltage":null,"operator":"Punjab State Power Corporation","plant_source":"hydro","plant_output":"58.5 MW","capacity_mw":58.5}},{"type":"Feature","geometry":{"type":"Point","coordinates":[75.9425648,31.9671499]},"properties":{"source":"osm","osm_id":122316766,"osm_type":"way","kind":"generation","name":"Pong Dam power house","voltage":null,"operator":"Bhakra Beas Management Board","plant_source":"hydro","plant_output":"396 MW","capacity_mw":396.0}},{"type":"Feature","geometry":{"type":"Point","coordinates":[75.1706868,30.2631745]},"properties":{"source":"osm","osm_id":124655029,"osm_type":"way","kind":"generation","name":"Guru Hargobind Thermal Plant","voltage":null,"operator":"Punjab State Power Corporation","plant_source":"coal","plant_output":"920 MW","capacity_mw":920.0}},{"type":"Feature","geometry":{"type":"Point","coordinates":[79.0995342,21.2414081]},"properties":{"source":"osm","osm_id":128552626,"osm_type":"way","kind":"generation","name":"Koradi Thermal Power Station","voltage":null,"operator":"Maharashtra State Power Generation Company","plant_source":"coal","plant_output":"2400 MW","capacity_mw":2400.0}},{"type":"Feature","geometry":{"type":"Point","coordinates":[79.1177088,21.276703]},"properties":{"source":"osm","osm_id":128552630,"osm_type":"way","kind":"generation","name":"Khaparkheda Thermal Power Station","voltage":null,"operator":"Maharashtra State Power Generation Company","plant_source":"coal","plant_output":"1340 MW","capacity_mw":1340.0}},{"type":"Feature","geometry":{"type":"Point","coordinates":[68.7802014,23.6618438]},"properties":{"source":"osm","osm_id":128739535,"osm_type":"way","kind":"generation","name":"Kutch Lignite Thermal Power Station","voltage":null,"operator":"Gujarat State Electricity Corporation Limited","plant_source":"coal","plant_output":"150 MW","capacity_mw":150.0}},{"type":"Feature","geometry":{"type":"Point","coordinates":[80.3067214,13.2369124]},"properties":{"source":"osm","osm_id":133591372,"osm_type":"way","kind":"generation","name":"Vallur Thermal Power Station","voltage":null,"operator":null,"plant_source":"coal","plant_output":"1500 MW","capacity_mw":1500.0}},{"type":"Feature","geometry":{"type":"Point","coordinates":[85.88096,23.7838465]},"properties":{"source":"osm","osm_id":134530447,"osm_type":"way","kind":"generation","name":"Bokaro Thermal Power Station","voltage":null,"operator":"Damodar Valley Corporation","plant_source":"coal","plant_output":"500 MW","capacity_mw":500.0}},{"type":"Feature","geometry":{"type":"Point","coordinates":[76.4304992,9.2393282]},"properties":{"source":"osm","osm_id":135182644,"osm_type":"way","kind":"generation","name":"Rajiv Gandhi Combined Cycle Power Plant","voltage":null,"operator":"NTPC","plant_source":"gas","plant_output":"350 MW","capacity_mw":350.0}},{"type":"Feature","geometry":{"type":"Point","coordinates":[73.1644085,17.5631822]},"properties":{"source":"osm","osm_id":135894012,"osm_type":"way","kind":"generation","name":"Ratnagiri Gas & Power Private Limited","voltage":null,"operator":"NTPC","plant_source":"gas","plant_output":"1967 MW","capacity_mw":1967.0}},{"type":"Feature","geometry":{"type":"Point","coordinates":[73.1644543,17.5604817]},"properties":{"source":"osm","osm_id":135894721,"osm_type":"way","kind":"generation","name":"Dabhol Power Station","voltage":null,"operator":"Ratnagiri Power & Gas Private Limited","plant_source":"gas","plant_output":"1967 MW","capacity_mw":1967.0}},{"type":"Feature","geometry":{"type":"Point","coordinates":[79.4432291,11.5548001]},"properties":{"source":"osm","osm_id":136727943,"osm_type":"way","kind":"generation","name":"Neyveli Thermal Power Station II","voltage":null,"operator":"NLC India","plant_source":"coal","plant_output":"1970 MW","capacity_mw":1970.0}},{"type":"Feature","geometry":{"type":"Point","coordinates":[68.6450812,23.7719988]},"properties":{"source":"osm","osm_id":138602374,"osm_type":"way","kind":"generation","name":"Akrimota Thermal Power Station","voltage":null,"operator":"Gujarat Mineral Development Corporation","plant_source":"coal","plant_output":"250 MW","capacity_mw":250.0}},{"type":"Feature","geometry":{"type":"Point","coordinates":[77.2524477,28.6167647]},"properties":{"source":"osm","osm_id":139071683,"osm_type":"way","kind":"generation","name":"Pragati-I Combined Cycle Gas Power Station","voltage":null,"operator":"Pragati Power Corporation Limited","plant_source":"gas","plant_output":"330 MW","capacity_mw":330.0}},{"type":"Feature","geometry":{"type":"Point","coordinates":[77.2502162,28.6190348]},"properties":{"source":"osm","osm_id":139071685,"osm_type":"way","kind":"generation","name":"Indraprastha Gas Turbine Power Station","voltage":null,"operator":"Indraprastha Power Generation Company Limited","plant_source":"gas","plant_output":"270 MW","capacity_mw":270.0}},{"type":"Feature","geometry":{"type":"Point","coordinates":[73.3535557,21.234989]},"properties":{"source":"osm","osm_id":141414135,"osm_type":"way","kind":"generation","name":"Kakrapar Atomic Power Station","voltage":null,"operator":null,"plant_source":"nuclear","plant_output":"1140 MW","capacity_mw":1140.0}},{"type":"Feature","geometry":{"type":"Point","coordinates":[72.6867824,21.1705989]},"properties":{"source":"osm","osm_id":146235176,"osm_type":"way","kind":"generation","name":"Kawas Thermal Power Station","voltage":null,"operator":"NTPC","plant_source":"gas","plant_output":"645 MW","capacity_mw":645.0}},{"type":"Feature","geometry":{"type":"Point","coordinates":[73.106921,21.394715]},"properties":{"source":"osm","osm_id":146235297,"osm_type":"way","kind":"generation","name":"Surat Lignite Power Plant","voltage":null,"operator":"Gujarat Industries Power Company Ltd.","plant_source":"coal","plant_output":"500 MW","capacity_mw":500.0}},{"type":"Feature","geometry":{"type":"Point","coordinates":[73.5555302,21.2101276]},"properties":{"source":"osm","osm_id":146235344,"osm_type":"way","kind":"generation","name":"Ukai Thermal Power Station","voltage":null,"operator":"Gujarat State Electricity Corporation Limited","plant_source":"coal","plant_output":"1110 MW","capacity_mw":1110.0}},{"type":"Feature","geometry":{"type":"Point","coordinates":[72.9871045,21.342135]},"properties":{"source":"osm","osm_id":146657606,"osm_type":"way","kind":"generation","name":"SUGEN Mega Power Plant","voltage":null,"operator":"Torrent Power","plant_source":"gas","plant_output":"1530 MW","capacity_mw":1530.0}},{"type":"Feature","geometry":{"type":"Point","coordinates":[85.9084398,20.5351183]},"properties":{"source":"osm","osm_id":146694050,"osm_type":"way","kind":"generation","name":"Choudwar Power Plant","voltage":null,"operator":null,"plant_source":"coal","plant_output":null,"capacity_mw":null}},{"type":"Feature","geometry":{"type":"Point","coordinates":[72.8714696,21.2304892]},"properties":{"source":"osm","osm_id":147084401,"osm_type":"way","kind":"generation","name":"Utran Gas Based Power Station","voltage":null,"operator":"Gujarat State Electricity Corporation Limited","plant_source":"gas","plant_output":"374 MW","capacity_mw":374.0}},{"type":"Feature","geometry":{"type":"Point","coordinates":[73.1137436,21.8237105]},"properties":{"source":"osm","osm_id":147486451,"osm_type":"way","kind":"generation","name":"NTPC Jhanor-Gandhar","voltage":null,"operator":"NTPC","plant_source":"gas","plant_output":"657.39 MW","capacity_mw":657.39}},{"type":"Feature","geometry":{"type":"Point","coordinates":[88.1051775,24.3651675]},"properties":{"source":"osm","osm_id":148270935,"osm_type":"way","kind":"generation","name":"Sagardighi Thermal Power Station","voltage":null,"operator":"West Bengal Power Development Corporation","plant_source":"coal","plant_output":"1600 MW","capacity_mw":1600.0}},{"type":"Feature","geometry":{"type":"Point","coordinates":[81.3254367,25.909167]},"properties":{"source":"osm","osm_id":148452693,"osm_type":"way","kind":"generation","name":"Feroze Gandhi Unchahar Thermal Power Station","voltage":null,"operator":"NTPC","plant_source":"coal","plant_output":"1550 MW","capacity_mw":1550.0}},{"type":"Feature","geometry":{"type":"Point","coordinates":[88.4028234,22.9979833]},"properties":{"source":"osm","osm_id":148851069,"osm_type":"way","kind":"generation","name":"Bandel Thermal Power Station","voltage":null,"operator":"West Bengal Power Development Corporation","plant_source":"coal","plant_output":"450 MW","capacity_mw":450.0}},{"type":"Feature","geometry":{"type":"Point","coordinates":[87.4520014,23.8299977]},"properties":{"source":"osm","osm_id":149778940,"osm_type":"way","kind":"generation","name":"Bakreshwar TPS","voltage":null,"operator":"West Bengal Power Development Corporation","plant_source":"coal","plant_output":"1050 MW","capacity_mw":1050.0}},{"type":"Feature","geometry":{"type":"Point","coordinates":[85.7620738,23.7284894]},"properties":{"source":"osm","osm_id":149822701,"osm_type":"way","kind":"generation","name":"Tenughat Thermal Power Plant","voltage":null,"operator":"Tenughat Vidyut Nigam Limited","plant_source":"coal","plant_output":"420 MW","capacity_mw":420.0}},{"type":"Feature","geometry":{"type":"Point","coordinates":[85.0742078,21.0944334]},"properties":{"source":"osm","osm_id":151113257,"osm_type":"way","kind":"generation","name":"Talcher Super Thermal Powerstation","voltage":null,"operator":"NTPC","plant_source":"coal","plant_output":"3 GW","capacity_mw":3000.0}},{"type":"Feature","geometry":{"type":"Point","coordinates":[74.4383179,14.8661137]},"properties":{"source":"osm","osm_id":152627181,"osm_type":"way","kind":"generation","name":"Kaiga Atomic Power Station","voltage":null,"operator":null,"plant_source":"nuclear","plant_output":"880 MW","capacity_mw":880.0}},{"type":"Feature","geometry":{"type":"Point","coordinates":[72.9780674,21.7809175]},"properties":{"source":"osm","osm_id":160505756,"osm_type":"way","kind":"generation","name":"Paguthan GPEC Combined Cycle Power Plant","voltage":null,"operator":"CLP India Private Limited","plant_source":"gas","plant_output":"655 MW","capacity_mw":655.0}},{"type":"Feature","geometry":{"type":"Point","coordinates":[69.5531807,22.8173404]},"properties":{"source":"osm","osm_id":160685914,"osm_type":"way","kind":"generation","name":"Mundra Thermal Powerplant","voltage":null,"operator":"Adani Power","plant_source":"coal","plant_output":"4620 MW","capacity_mw":4620.0}},{"type":"Feature","geometry":{"type":"Point","coordinates":[69.5188392,22.819854]},"properties":{"source":"osm","osm_id":160685919,"osm_type":"way","kind":"generation","name":"Coastal Gujarat Power Ltd","voltage":null,"operator":"Tata Power","plant_source":"coal","plant_output":"4000 MW","capacity_mw":4000.0}},{"type":"Feature","geometry":{"type":"Point","coordinates":[76.3756969,28.4822247]},"properties":{"source":"osm","osm_id":161472419,"osm_type":"way","kind":"generation","name":"Indira Gandhi Super Thermal Power Project","voltage":null,"operator":null,"plant_source":"coal","plant_output":"1500 MW","capacity_mw":1500.0}},{"type":"Feature","geometry":{"type":"Point","coordinates":[76.3495557,28.4910807]},"properties":{"source":"osm","osm_id":161478975,"osm_type":"way","kind":"generation","name":"Mahatma Gandhi Thermal Power Project","voltage":null,"operator":null,"plant_source":"coal","plant_output":"1320 MW","capacity_mw":1320.0}},{"type":"Feature","geometry":{"type":"Point","coordinates":[77.9801422,31.5641331]},"properties":{"source":"osm","osm_id":166148049,"osm_type":"way","kind":"generation","name":"NATHPA JHAKRI","voltage":null,"operator":null,"plant_source":"hydro","plant_output":null,"capacity_mw":null}},{"type":"Feature","geometry":{"type":"Point","coordinates":[77.1848173,34.2152957]},"properties":{"source":"osm","osm_id":172135658,"osm_type":"way","kind":"generation","name":"Nimoo Bazgo Hydroelectric Plant","voltage":null,"operator":null,"plant_source":"hydro","plant_output":"45 MW","capacity_mw":45.0}},{"type":"Feature","geometry":{"type":"Point","coordinates":[75.046673,13.6766249]},"properties":{"source":"osm","osm_id":172289856,"osm_type":"way","kind":"generation","name":"Mani Dam Powerhouse","voltage":null,"operator":"Karnataka Power Corporation Limited","plant_source":"hydro","plant_output":"9 MW","capacity_mw":9.0}},{"type":"Feature","geometry":{"type":"Point","coordinates":[77.0717398,28.7964571]},"properties":{"source":"osm","osm_id":172301971,"osm_type":"way","kind":"generation","name":"Pragati-III Combined Cycle Power Plant","voltage":null,"operator":null,"plant_source":"gas","plant_output":"1500 MW","capacity_mw":1500.0}},{"type":"Feature","geometry":{"type":"Point","coordinates":[71.3285733,25.8965751]},"properties":{"source":"osm","osm_id":172860716,"osm_type":"way","kind":"generation","name":"Barmer Power Plant","voltage":null,"operator":"Raj West Power Limited","plant_source":"coal","plant_output":"1080 MW","capacity_mw":1080.0}},{"type":"Feature","geometry":{"type":"Point","coordinates":[71.2553071,26.0458044]},"properties":{"source":"osm","osm_id":173212580,"osm_type":"way","kind":"generation","name":"Giral Lignite Power Plant","voltage":null,"operator":"Rajasthan Rajya Vidyut Utpadan Nigam","plant_source":"coal","plant_output":"250 MW","capacity_mw":250.0}},{"type":"Feature","geometry":{"type":"Point","coordinates":[79.5278234,26.631137]},"properties":{"source":"osm","osm_id":174037453,"osm_type":"way","kind":"generation","name":"Auraiya Thermal Power Station","voltage":null,"operator":null,"plant_source":"gas","plant_output":"652 MW","capacity_mw":652.0}},{"type":"Feature","geometry":{"type":"Point","coordinates":[77.0423516,24.6360519]},"properties":{"source":"osm","osm_id":174639087,"osm_type":"way","kind":"generation","name":"Chhabra Thermal Power Station","voltage":null,"operator":"Rajasthan Rajya Vidyut Utpadan Nigam","plant_source":"coal","plant_output":"2320 MW","capacity_mw":2320.0}},{"type":"Feature","geometry":{"type":"Point","coordinates":[76.7352332,24.7787075]},"properties":{"source":"osm","osm_id":174639100,"osm_type":"way","kind":"generation","name":"Kawai Thermal Power Station","voltage":null,"operator":"Adani Power","plant_source":"coal","plant_output":"1320 MW","capacity_mw":1320.0}},{"type":"Feature","geometry":{"type":"Point","coordinates":[74.8022129,24.575439]},"properties":{"source":"osm","osm_id":175153854,"osm_type":"way","kind":"generation","name":"Khor Thermal Power Plant","voltage":null,"operator":"Grasim Industries","plant_source":"coal","plant_output":"50 MW","capacity_mw":50.0}},{"type":"Feature","geometry":{"type":"Point","coordinates":[75.5539386,24.7013783]},"properties":{"source":"osm","osm_id":175161223,"osm_type":"way","kind":"generation","name":"Gandhi Sagar","voltage":null,"operator":"Madhya Pradesh Power Generating Company Limited","plant_source":"hydro","plant_output":"115 MW","capacity_mw":115.0}},{"type":"Feature","geometry":{"type":"Point","coordinates":[73.7469768,24.3498795]},"properties":{"source":"osm","osm_id":175298463,"osm_type":"way","kind":"generation","name":"Zawar Mines Captive Power Plant","voltage":null,"operator":"Hindustan Zinc Limited","plant_source":"coal","plant_output":"80 MW","capacity_mw":80.0}},{"type":"Feature","geometry":{"type":"Point","coordinates":[71.5972483,24.8065411]},"properties":{"source":"osm","osm_id":175330892,"osm_type":"way","kind":"generation","name":"Transtech Green Power Plant Sanchore","voltage":null,"operator":null,"plant_source":"biomass","plant_output":"12 MW","capacity_mw":12.0}},{"type":"Feature","geometry":{"type":"Point","coordinates":[84.0392763,21.816881]},"properties":{"source":"osm","osm_id":175447676,"osm_type":"way","kind":"generation","name":"Jharsuguda Sterlite power station","voltage":null,"operator":"Sterlite Energy Ltd.","plant_source":"coal","plant_output":"2400 MW","capacity_mw":2400.0}},{"type":"Feature","geometry":{"type":"Point","coordinates":[76.5594219,31.2058887]},"properties":{"source":"osm","osm_id":177337970,"osm_type":"way","kind":"generation","name":"Anandpur Sahib Power House II","voltage":null,"operator":"Punjab State Power Corporation","plant_source":"hydro","plant_output":"67 MW","capacity_mw":67.0}},{"type":"Feature","geometry":{"type":"Point","coordinates":[85.2911873,20.8076658]},"properties":{"source":"osm","osm_id":177572840,"osm_type":"way","kind":"generation","name":null,"voltage":null,"operator":null,"plant_source":"coal","plant_output":"95 MW","capacity_mw":95.0}},{"type":"Feature","geometry":{"type":"Point","coordinates":[75.8627398,29.3490858]},"properties":{"source":"osm","osm_id":183894202,"osm_type":"way","kind":"generation","name":"Rajiv Gandhi Thermal Power Project","voltage":null,"operator":"Haryana Power Generation Corporation Limited","plant_source":"coal","plant_output":"1200 MW","capacity_mw":1200.0}},{"type":"Feature","geometry":{"type":"Point","coordinates":[68.9924851,22.4087365]},"properties":{"source":"osm","osm_id":184938245,"osm_type":"way","kind":"generation","name":"Mithapur Solar Power Plant","voltage":null,"operator":null,"plant_source":"solar","plant_output":"25 MW","capacity_mw":25.0}},{"type":"Feature","geometry":{"type":"Point","coordinates":[74.9259011,30.2350364]},"properties":{"source":"osm","osm_id":185778688,"osm_type":"way","kind":"generation","name":"Guru Nanak Dev Thermal Power Plant","voltage":null,"operator":"GNDTP","plant_source":"coal","plant_output":"440 MW","capacity_mw":440.0}},{"type":"Feature","geometry":{"type":"Point","coordinates":[75.6699909,12.8384321]},"properties":{"source":"osm","osm_id":186638787,"osm_type":"way","kind":"generation","name":"Kempuhole Power Plant","voltage":null,"operator":null,"plant_source":"hydro","plant_output":null,"capacity_mw":null}},{"type":"Feature","geometry":{"type":"Point","coordinates":[77.2491003,32.0040586]},"properties":{"source":"osm","osm_id":191046676,"osm_type":"way","kind":"generation","name":"Malana Hydroelectric Power Plant","voltage":null,"operator":"Malana Power Company Limited","plant_source":"hydro","plant_output":null,"capacity_mw":null}},{"type":"Feature","geometry":{"type":"Point","coordinates":[73.7488374,21.8344639]},"properties":{"source":"osm","osm_id":191322438,"osm_type":"way","kind":"generation","name":"River Bed Power House","voltage":null,"operator":null,"plant_source":"hydro","plant_output":null,"capacity_mw":null}},{"type":"Feature","geometry":{"type":"Point","coordinates":[76.4695383,22.2887224]},"properties":{"source":"osm","osm_id":192715770,"osm_type":"way","kind":"generation","name":"Indira Sagar","voltage":null,"operator":null,"plant_source":"hydro","plant_output":"1000 MW","capacity_mw":1000.0}},{"type":"Feature","geometry":{"type":"Point","coordinates":[76.5362669,22.1029584]},"properties":{"source":"osm","osm_id":192715779,"osm_type":"way","kind":"generation","name":"Shree Singaji Thermal Power Project","voltage":null,"operator":"Madhya Pradesh Power Generating Company Limited","plant_source":"coal","plant_output":"2520 MW","capacity_mw":2520.0}},{"type":"Feature","geometry":{"type":"Point","coordinates":[75.6814581,22.164338]},"properties":{"source":"osm","osm_id":192772362,"osm_type":"way","kind":"generation","name":"Maheshwar","voltage":null,"operator":null,"plant_source":"hydro","plant_output":null,"capacity_mw":null}},{"type":"Feature","geometry":{"type":"Point","coordinates":[76.3188247,25.1805579]},"properties":{"source":"osm","osm_id":193194772,"osm_type":"way","kind":"generation","name":"Anta Thermal Power Station","voltage":null,"operator":"NTPC","plant_source":"gas","plant_output":"419.33 MW","capacity_mw":419.33}},{"type":"Feature","geometry":{"type":"Point","coordinates":[77.8349001,25.5623287]},"properties":{"source":"osm","osm_id":194040818,"osm_type":"way","kind":"generation","name":"Marhikheda","voltage":null,"operator":"Madhya Pradesh Power Generating Company Limited","plant_source":"hydro","plant_output":"60 MW","capacity_mw":60.0}},{"type":"Feature","geometry":{"type":"Point","coordinates":[78.3719185,25.1002237]},"properties":{"source":"osm","osm_id":194040819,"osm_type":"way","kind":"generation","name":"Matatila","voltage":null,"operator":"Uttar Pradesh Rajya Vidyut Utpadan Nigam Limited","plant_source":"hydro","plant_output":"30.6 MW","capacity_mw":30.6}},{"type":"Feature","geometry":{"type":"Point","coordinates":[78.2321225,24.7635714]},"properties":{"source":"osm","osm_id":194040861,"osm_type":"way","kind":"generation","name":"Rajghat powerhouse","voltage":null,"operator":"Madhya Pradesh Power Generating Company Limited","plant_source":"hydro","plant_output":"45 MW","capacity_mw":45.0}},{"type":"Feature","geometry":{"type":"Point","coordinates":[78.177902,22.1102271]},"properties":{"source":"osm","osm_id":194209498,"osm_type":"way","kind":"generation","name":"Satpura Thermal Power Station","voltage":null,"operator":"Madhya Pradesh Power Generating Company Limited","plant_source":"coal","plant_output":"1330 MW","capacity_mw":1330.0}},{"type":"Feature","geometry":{"type":"Point","coordinates":[79.9242553,22.9430019]},"properties":{"source":"osm","osm_id":194707370,"osm_type":"way","kind":"generation","name":"Bargi","voltage":null,"operator":"Madhya Pradesh Power Generating Company Limited","plant_source":"hydro","plant_output":"90 MW","capacity_mw":90.0}},{"type":"Feature","geometry":{"type":"Point","coordinates":[81.313704,24.8596521]},"properties":{"source":"osm","osm_id":195665277,"osm_type":"way","kind":"generation","name":"Bansagar-I","voltage":null,"operator":null,"plant_source":"hydro","plant_output":"315 MW","capacity_mw":315.0}},{"type":"Feature","geometry":{"type":"Point","coordinates":[81.2961667,24.4848692]},"properties":{"source":"osm","osm_id":195665279,"osm_type":"way","kind":"generation","name":"Bansagar-II","voltage":null,"operator":"Madhya Pradesh Power Generating Company Limited","plant_source":"hydro","plant_output":"30 MW","capacity_mw":30.0}},{"type":"Feature","geometry":{"type":"Point","coordinates":[81.2856621,24.1873668]},"properties":{"source":"osm","osm_id":195665280,"osm_type":"way","kind":"generation","name":"Bansagar-III","voltage":null,"operator":"Madhya Pradesh Power Generating Company Limited","plant_source":"hydro","plant_output":"60 MW","capacity_mw":60.0}},{"type":"Feature","geometry":{"type":"Point","coordinates":[81.2746864,24.2229477]},"properties":{"source":"osm","osm_id":195665281,"osm_type":"way","kind":"generation","name":"Bansagar-IV","voltage":null,"operator":"Madhya Pradesh Power Generating Company Limited","plant_source":"hydro","plant_output":"20 MW","capacity_mw":20.0}},{"type":"Feature","geometry":{"type":"Point","coordinates":[82.4079897,24.0063057]},"properties":{"source":"osm","osm_id":195665346,"osm_type":"way","kind":"generation","name":"Mahan Thermal Power Plant","voltage":null,"operator":"Adani Power","plant_source":"coal","plant_output":"1200 MW","capacity_mw":1200.0}},{"type":"Feature","geometry":{"type":"Point","coordinates":[81.0332923,23.3253755]},"properties":{"source":"osm","osm_id":195777667,"osm_type":"way","kind":"generation","name":"Birsingpur","voltage":null,"operator":"Madhya Pradesh Power Generating Company Limited","plant_source":"hydro","plant_output":"20 MW","capacity_mw":20.0}},{"type":"Feature","geometry":{"type":"Point","coordinates":[81.0648047,23.3084352]},"properties":{"source":"osm","osm_id":195777815,"osm_type":"way","kind":"generation","name":"Sanjay Gandhi Thermal Power Station","voltage":null,"operator":"Madhya Pradesh Power Generating Company Limited","plant_source":"coal","plant_output":"1340 MW","capacity_mw":1340.0}},{"type":"Feature","geometry":{"type":"Point","coordinates":[81.7890919,23.0670378]},"properties":{"source":"osm","osm_id":195991256,"osm_type":"way","kind":"generation","name":"Anuppur Thermal Power Project","voltage":null,"operator":"Hindustan Power Private Limited","plant_source":"coal","plant_output":"1200 MW","capacity_mw":1200.0}},{"type":"Feature","geometry":{"type":"Point","coordinates":[82.6740608,24.1050321]},"properties":{"source":"osm","osm_id":196019571,"osm_type":"way","kind":"generation","name":"Vindhyachal","voltage":null,"operator":"NTPC","plant_source":"coal","plant_output":"4760 MW","capacity_mw":4760.0}},{"type":"Feature","geometry":{"type":"Point","coordinates":[82.7065171,24.1053291]},"properties":{"source":"osm","osm_id":196411761,"osm_type":"way","kind":"generation","name":"Singrauli Super Thermal Power Station","voltage":null,"operator":"NTPC","plant_source":"coal","plant_output":"2000 MW","capacity_mw":2000.0}},{"type":"Feature","geometry":{"type":"Point","coordinates":[82.7910858,24.1816572]},"properties":{"source":"osm","osm_id":196524169,"osm_type":"way","kind":"generation","name":"Renusagar Coal Power Plant","voltage":null,"operator":"Hindalco Industries Limited","plant_source":"coal","plant_output":"742 MW","capacity_mw":742.0}},{"type":"Feature","geometry":{"type":"Point","coordinates":[82.7935912,24.0280727]},"properties":{"source":"osm","osm_id":196663594,"osm_type":"way","kind":"generation","name":"Rihand Thermal Power Station","voltage":null,"operator":"NTPC","plant_source":"coal","plant_output":"3000 MW","capacity_mw":3000.0}},{"type":"Feature","geometry":{"type":"Point","coordinates":[78.7578375,25.5136804]},"properties":{"source":"osm","osm_id":197187434,"osm_type":"way","kind":"generation","name":"Parichha Thermal Power Station","voltage":null,"operator":"Uttar Pradesh Rajya Vidyut Utpadan Nigam Limited","plant_source":"coal","plant_output":"920 MW","capacity_mw":920.0}},{"type":"Feature","geometry":{"type":"Point","coordinates":[82.4547023,24.2238599]},"properties":{"source":"osm","osm_id":197202067,"osm_type":"way","kind":"generation","name":"Mahan Aluminium Bargawan Coal Power Plant","voltage":null,"operator":"Hindalco Industries Limited","plant_source":"coal","plant_output":"750 MW","capacity_mw":750.0}},{"type":"Feature","geometry":{"type":"Point","coordinates":[73.8145818,19.2345264]},"properties":{"source":"osm","osm_id":198125733,"osm_type":"way","kind":"generation","name":"MANIKDOH","voltage":null,"operator":null,"plant_source":"hydro","plant_output":null,"capacity_mw":null}},{"type":"Feature","geometry":{"type":"Point","coordinates":[77.2754743,32.0811702]},"properties":{"source":"osm","osm_id":199104528,"osm_type":"way","kind":"generation","name":"MALANA","voltage":null,"operator":null,"plant_source":"hydro","plant_output":null,"capacity_mw":null}},{"type":"Feature","geometry":{"type":"Point","coordinates":[75.3242454,12.8546506]},"properties":{"source":"osm","osm_id":199356084,"osm_type":"way","kind":"generation","name":"Neerakatte Hydel Plant","voltage":null,"operator":null,"plant_source":"hydro","plant_output":null,"capacity_mw":null}},{"type":"Feature","geometry":{"type":"Point","coordinates":[78.9353006,21.036851]},"properties":{"source":"osm","osm_id":201845422,"osm_type":"way","kind":"generation","name":"Mihan Sez Power Plant","voltage":null,"operator":null,"plant_source":"coal","plant_output":"yes","capacity_mw":null}},{"type":"Feature","geometry":{"type":"Point","coordinates":[79.3966299,21.1799234]},"properties":{"source":"osm","osm_id":201955697,"osm_type":"way","kind":"generation","name":"Mauda Super Thermal Power Station","voltage":null,"operator":"NTPC","plant_source":"coal","plant_output":"2320 MW","capacity_mw":2320.0}},{"type":"Feature","geometry":{"type":"Point","coordinates":[78.9336336,20.9281374]},"properties":{"source":"osm","osm_id":201955740,"osm_type":"way","kind":"generation","name":"Butibori Thermal Power Station","voltage":null,"operator":"Reliance Power","plant_source":"coal","plant_output":"600 MW","capacity_mw":600.0}},{"type":"Feature","geometry":{"type":"Point","coordinates":[81.4243243,21.1882014]},"properties":{"source":"osm","osm_id":202180496,"osm_type":"way","kind":"generation","name":"Bhilai 500 MW Expansion Power Project","voltage":null,"operator":"NSPCL","plant_source":"coal","plant_output":"500 MW","capacity_mw":500.0}},{"type":"Feature","geometry":{"type":"Point","coordinates":[78.9814126,20.2727797]},"properties":{"source":"osm","osm_id":202180620,"osm_type":"way","kind":"generation","name":"Wardha Warora Power Plant","voltage":null,"operator":"KSK Energy Ventures","plant_source":"coal","plant_output":"540 MW","capacity_mw":540.0}},{"type":"Feature","geometry":{"type":"Point","coordinates":[82.6053249,22.0703404]},"properties":{"source":"osm","osm_id":202980849,"osm_type":"way","kind":"generation","name":"Marwa Thermal Power Plant","voltage":null,"operator":"Chhattisgarh State Power Generation Company","plant_source":"coal","plant_output":"1000 MW","capacity_mw":1000.0}},{"type":"Feature","geometry":{"type":"Point","coordinates":[82.7219486,22.2424497]},"properties":{"source":"osm","osm_id":203011165,"osm_type":"way","kind":"generation","name":"Lanco Amarkantak","voltage":null,"operator":"Lanco","plant_source":"coal","plant_output":"600 MW","capacity_mw":600.0}},{"type":"Feature","geometry":{"type":"Point","coordinates":[82.4132796,21.9617037]},"properties":{"source":"osm","osm_id":203167959,"osm_type":"way","kind":"generation","name":"Akaltara-KMPCL Coal Power Plant","voltage":null,"operator":"KSK Mahanadi Power Company Ltd","plant_source":"coal","plant_output":"1800 MW","capacity_mw":1800.0}},{"type":"Feature","geometry":{"type":"Point","coordinates":[82.5971526,22.6035811]},"properties":{"source":"osm","osm_id":203167962,"osm_type":"way","kind":"generation","name":"Hasdeo Bango power station","voltage":null,"operator":"Chhattisgarh State Power Generation Company","plant_source":"hydro","plant_output":"120 MW","capacity_mw":120.0}},{"type":"Feature","geometry":{"type":"Point","coordinates":[82.6804012,22.4143141]},"properties":{"source":"osm","osm_id":203167965,"osm_type":"way","kind":"generation","name":"Hasdeo Thermal Power Station Korba West","voltage":null,"operator":null,"plant_source":"coal","plant_output":"1340 MW","capacity_mw":1340.0}},{"type":"Feature","geometry":{"type":"Point","coordinates":[82.7202147,22.370576]},"properties":{"source":"osm","osm_id":203167968,"osm_type":"way","kind":"generation","name":"Dr. Shyama Prasad Mukherjee Thermal Power Station","voltage":null,"operator":"Chhattisgarh State Power Generation Company","plant_source":"coal","plant_output":"500 MW","capacity_mw":500.0}},{"type":"Feature","geometry":{"type":"Point","coordinates":[82.683916,22.3872846]},"properties":{"source":"osm","osm_id":203167969,"osm_type":"way","kind":"generation","name":"Korba Super Thermal Power Plant","voltage":null,"operator":"NTPC","plant_source":"coal","plant_output":"2600 MW","capacity_mw":2600.0}},{"type":"Feature","geometry":{"type":"Point","coordinates":[82.5561117,22.3945578]},"properties":{"source":"osm","osm_id":203167987,"osm_type":"way","kind":"generation","name":"Chakabura Power Station","voltage":null,"operator":"ACB (India)","plant_source":"coal","plant_output":"60 MW","capacity_mw":60.0}},{"type":"Feature","geometry":{"type":"Point","coordinates":[83.2742158,21.7408088]},"properties":{"source":"osm","osm_id":203168010,"osm_type":"way","kind":"generation","name":"Adani Korba West power station","voltage":null,"operator":"Korba West Power Company","plant_source":"coal","plant_output":"600 MW","capacity_mw":600.0}},{"type":"Feature","geometry":{"type":"Point","coordinates":[83.1912217,21.9082666]},"properties":{"source":"osm","osm_id":203168041,"osm_type":"way","kind":"generation","name":"Baradarha Power Station","voltage":null,"operator":null,"plant_source":"coal","plant_output":"1200 MW","capacity_mw":1200.0}},{"type":"Feature","geometry":{"type":"Point","coordinates":[82.6266652,22.4871421]},"properties":{"source":"osm","osm_id":203168051,"osm_type":"way","kind":"generation","name":null,"voltage":null,"operator":"Vandana Energy & Steel","plant_source":"coal","plant_output":"35 MW","capacity_mw":35.0}},{"type":"Feature","geometry":{"type":"Point","coordinates":[82.6059366,22.4900708]},"properties":{"source":"osm","osm_id":203168066,"osm_type":"way","kind":"generation","name":"Salora Power Station","voltage":null,"operator":"Vandana Vidhyut","plant_source":"coal","plant_output":"270 MW","capacity_mw":270.0}},{"type":"Feature","geometry":{"type":"Point","coordinates":[82.2285262,25.6514489]},"properties":{"source":"osm","osm_id":203915174,"osm_type":"way","kind":"generation","name":"Abhavani Steels Power plant","voltage":null,"operator":null,"plant_source":"coal","plant_output":"40 MW","capacity_mw":40.0}},{"type":"Feature","geometry":{"type":"Point","coordinates":[79.9370254,27.8187503]},"properties":{"source":"osm","osm_id":203915176,"osm_type":"way","kind":"generation","name":"Rosa Thermal Power Plant","voltage":null,"operator":"Reliance","plant_source":"coal","plant_output":"1200 MW","capacity_mw":1200.0}},{"type":"Feature","geometry":{"type":"Point","coordinates":[78.757622,29.516921]},"properties":{"source":"osm","osm_id":204007350,"osm_type":"way","kind":"generation","name":"Ramganga Hydroelectric Power Plant","voltage":null,"operator":"Uttarakhand Jal Vidyut Nigam Limited","plant_source":"hydro","plant_output":"198 MW","capacity_mw":198.0}},{"type":"Feature","geometry":{"type":"Point","coordinates":[85.0352057,21.2755523]},"properties":{"source":"osm","osm_id":205495613,"osm_type":"way","kind":"generation","name":"Rengali Hydroelectric Power Plant","voltage":null,"operator":null,"plant_source":"hydro","plant_output":"250 MW","capacity_mw":250.0}},{"type":"Feature","geometry":{"type":"Point","coordinates":[86.7464048,23.8209777]},"properties":{"source":"osm","osm_id":205803245,"osm_type":"way","kind":"generation","name":"Maithon Power Plant","voltage":null,"operator":"Tata Power","plant_source":"coal","plant_output":"1050 MW","capacity_mw":1050.0}},{"type":"Feature","geometry":{"type":"Point","coordinates":[85.7542106,25.4877023]},"properties":{"source":"osm","osm_id":205942946,"osm_type":"way","kind":"generation","name":"Barh Super Thermal Power Station","voltage":null,"operator":"NTPC","plant_source":"coal","plant_output":"3300 MW","capacity_mw":3300.0}},{"type":"Feature","geometry":{"type":"Point","coordinates":[87.2663069,25.2390895]},"properties":{"source":"osm","osm_id":205942949,"osm_type":"way","kind":"generation","name":"Kahalgaon Thermal Power Station","voltage":null,"operator":"National Thermal Power NTPC","plant_source":"coal","plant_output":"2340 MW","capacity_mw":2340.0}},{"type":"Feature","geometry":{"type":"Point","coordinates":[87.0472183,23.7851322]},"properties":{"source":"osm","osm_id":206009234,"osm_type":"way","kind":"generation","name":"Crescent Power Limited","voltage":null,"operator":"Crescent Power Limited","plant_source":"coal","plant_output":"40 MW","capacity_mw":40.0}},{"type":"Feature","geometry":{"type":"Point","coordinates":[87.2102967,23.5774768]},"properties":{"source":"osm","osm_id":206009237,"osm_type":"way","kind":"generation","name":"Durgapur Steel Thermal Power Station","voltage":null,"operator":"Damodor Vally Corporation","plant_source":"coal","plant_output":"1000 MW","capacity_mw":1000.0}},{"type":"Feature","geometry":{"type":"Point","coordinates":[70.558093,23.3785681]},"properties":{"source":"osm","osm_id":208270566,"osm_type":"way","kind":"generation","name":"Adhoi (Pasakayara)","voltage":null,"operator":null,"plant_source":"solar","plant_output":"30 MW","capacity_mw":30.0}},{"type":"Feature","geometry":{"type":"Point","coordinates":[70.3878358,23.3492611]},"properties":{"source":"osm","osm_id":208270576,"osm_type":"way","kind":"generation","name":"Mouje Karmariya","voltage":null,"operator":"Solar Semiconductor Power Company","plant_source":"solar","plant_output":"20 MW","capacity_mw":20.0}},{"type":"Feature","geometry":{"type":"Point","coordinates":[70.0532502,23.3634358]},"properties":{"source":"osm","osm_id":208350328,"osm_type":"way","kind":"generation","name":"Khisara","voltage":null,"operator":null,"plant_source":"solar","plant_output":"yes","capacity_mw":null}},{"type":"Feature","geometry":{"type":"Point","coordinates":[72.8581066,27.8580247]},"properties":{"source":"osm","osm_id":208635578,"osm_type":"way","kind":"generation","name":"VS Lignite Power Plant","voltage":null,"operator":"KSK Energy Ventures Pvt Ltd","plant_source":"coal","plant_output":"135 MW","capacity_mw":135.0}},{"type":"Feature","geometry":{"type":"Point","coordinates":[85.5625835,24.3859329]},"properties":{"source":"osm","osm_id":209806629,"osm_type":"way","kind":"generation","name":"Koderma Thermal Power Station","voltage":null,"operator":"Damodar Valley Corporation","plant_source":"coal","plant_output":"1000 MW","capacity_mw":1000.0}},{"type":"Feature","geometry":{"type":"Point","coordinates":[75.7311137,32.4398082]},"properties":{"source":"osm","osm_id":210057006,"osm_type":"way","kind":"generation","name":"Ranjit Sagar hydro power station","voltage":null,"operator":"Punjab State Power Corporation","plant_source":"hydro","plant_output":"600 MW","capacity_mw":600.0}},{"type":"Feature","geometry":{"type":"Point","coordinates":[75.5836724,32.3373169]},"properties":{"source":"osm","osm_id":210415045,"osm_type":"way","kind":"generation","name":null,"voltage":null,"operator":"Punjab State Power Corporation","plant_source":"hydro","plant_output":"15 MW","capacity_mw":15.0}},{"type":"Feature","geometry":{"type":"Point","coordinates":[75.5797251,32.3064229]},"properties":{"source":"osm","osm_id":210415048,"osm_type":"way","kind":"generation","name":null,"voltage":null,"operator":"Punjab State Power Corporation","plant_source":"hydro","plant_output":"15 MW","capacity_mw":15.0}},{"type":"Feature","geometry":{"type":"Point","coordinates":[75.5822223,32.3373571]},"properties":{"source":"osm","osm_id":210415049,"osm_type":"way","kind":"generation","name":null,"voltage":null,"operator":"Punjab State Power Corporation","plant_source":"hydro","plant_output":"15 MW","capacity_mw":15.0}},{"type":"Feature","geometry":{"type":"Point","coordinates":[75.5730031,32.2650325]},"properties":{"source":"osm","osm_id":210415051,"osm_type":"way","kind":"generation","name":null,"voltage":null,"operator":"Punjab State Power Corporation","plant_source":"hydro","plant_output":"15 MW","capacity_mw":15.0}},{"type":"Feature","geometry":{"type":"Point","coordinates":[75.5811753,32.3063781]},"properties":{"source":"osm","osm_id":210415052,"osm_type":"way","kind":"generation","name":null,"voltage":null,"operator":"Punjab State Power Corporation","plant_source":"hydro","plant_output":"15 MW","capacity_mw":15.0}},{"type":"Feature","geometry":{"type":"Point","coordinates":[75.570906,32.2656351]},"properties":{"source":"osm","osm_id":210415066,"osm_type":"way","kind":"generation","name":null,"voltage":null,"operator":"Punjab State Power Corporation","plant_source":"hydro","plant_output":"15 MW","capacity_mw":15.0}},{"type":"Feature","geometry":{"type":"Point","coordinates":[75.6651782,31.8903792]},"properties":{"source":"osm","osm_id":210427153,"osm_type":"way","kind":"generation","name":"Mukerian Hydel Project IV","voltage":null,"operator":"Punjab State Power Corporation","plant_source":"hydro","plant_output":"58.5 MW","capacity_mw":58.5}},{"type":"Feature","geometry":{"type":"Point","coordinates":[75.8358133,31.9550405]},"properties":{"source":"osm","osm_id":210427154,"osm_type":"way","kind":"generation","name":"Mukerian Hydel Project I","voltage":null,"operator":"Punjab State Power Corporation","plant_source":"hydro","plant_output":"45 MW","capacity_mw":45.0}},{"type":"Feature","geometry":{"type":"Point","coordinates":[76.5646905,31.0417401]},"properties":{"source":"osm","osm_id":210624446,"osm_type":"way","kind":"generation","name":"Guru Gobind Singh Super Thermal Power Plant","voltage":null,"operator":"Punjab State Power Corporation","plant_source":"coal","plant_output":"840 MW","capacity_mw":840.0}},{"type":"Feature","geometry":{"type":"Point","coordinates":[74.0897983,19.8637411]},"properties":{"source":"osm","osm_id":220816413,"osm_type":"way","kind":"generation","name":"RattanIndia Nashik Thermal Power Project","voltage":null,"operator":"RattanIndia","plant_source":"coal","plant_output":"1350 MW","capacity_mw":1350.0}},{"type":"Feature","geometry":{"type":"Point","coordinates":[73.892377,19.9831528]},"properties":{"source":"osm","osm_id":220894039,"osm_type":"way","kind":"generation","name":"Nashik Thermal Power Station","voltage":null,"operator":"Maharashtra State Power Generation Company","plant_source":"coal","plant_output":"630 MW","capacity_mw":630.0}},{"type":"Feature","geometry":{"type":"Point","coordinates":[75.8511239,21.0465892]},"properties":{"source":"osm","osm_id":221054237,"osm_type":"way","kind":"generation","name":"Bhusawal Thermal Power Station","voltage":null,"operator":"Maharashtra State Power Generation Company","plant_source":"coal","plant_output":"1210 MW","capacity_mw":1210.0}},{"type":"Feature","geometry":{"type":"Point","coordinates":[76.7989254,20.7161592]},"properties":{"source":"osm","osm_id":221135458,"osm_type":"way","kind":"generation","name":"Paras Thermal Power Station","voltage":null,"operator":"Maharashtra State Power Generation Company","plant_source":"coal","plant_output":"500 MW","capacity_mw":500.0}},{"type":"Feature","geometry":{"type":"Point","coordinates":[77.900998,21.0756761]},"properties":{"source":"osm","osm_id":221135557,"osm_type":"way","kind":"generation","name":"Amravati Thermal Power Project","voltage":null,"operator":"RattanIndia Power Ltd","plant_source":"coal","plant_output":"1350 MW","capacity_mw":1350.0}},{"type":"Feature","geometry":{"type":"Point","coordinates":[78.6290376,20.7072467]},"properties":{"source":"osm","osm_id":221264662,"osm_type":"way","kind":"generation","name":null,"voltage":null,"operator":"Uttam Galva","plant_source":"coal","plant_output":"80 MW","capacity_mw":80.0}},{"type":"Feature","geometry":{"type":"Point","coordinates":[76.525993,18.8691246]},"properties":{"source":"osm","osm_id":221410711,"osm_type":"way","kind":"generation","name":"Parli Thermal Power Station","voltage":null,"operator":"Maharashtra State Power Generation Company","plant_source":"coal","plant_output":"630 MW","capacity_mw":630.0}},{"type":"Feature","geometry":{"type":"Point","coordinates":[75.1196773,18.0720731]},"properties":{"source":"osm","osm_id":221543039,"osm_type":"way","kind":"generation","name":"Ujani","voltage":null,"operator":null,"plant_source":"hydro","plant_output":"12 MW","capacity_mw":12.0}},{"type":"Feature","geometry":{"type":"Point","coordinates":[74.5059224,23.5446697]},"properties":{"source":"osm","osm_id":222370755,"osm_type":"way","kind":"generation","name":"Mahi Power House I","voltage":null,"operator":"Rajasthan Rajya Vidyut Utpadan Nigam","plant_source":"hydro","plant_output":"50 MW","capacity_mw":50.0}},{"type":"Feature","geometry":{"type":"Point","coordinates":[73.6494174,19.5332934]},"properties":{"source":"osm","osm_id":222687711,"osm_type":"way","kind":"generation","name":"Ghatghar Hydro Power Station","voltage":null,"operator":null,"plant_source":"hydro","plant_output":"250 MW","capacity_mw":250.0}},{"type":"Feature","geometry":{"type":"Point","coordinates":[69.026229,23.2556644]},"properties":{"source":"osm","osm_id":222878251,"osm_type":"way","kind":"generation","name":"Bitta Solar Power Plant","voltage":null,"operator":"Adani Power","plant_source":"solar","plant_output":"40 MW","capacity_mw":40.0}},{"type":"Feature","geometry":{"type":"Point","coordinates":[70.7439386,23.3685837]},"properties":{"source":"osm","osm_id":222878252,"osm_type":"way","kind":"generation","name":"Pratapgarh","voltage":null,"operator":"Integrated Coal Mining","plant_source":"solar","plant_output":"9 MW","capacity_mw":9.0}},{"type":"Feature","geometry":{"type":"Point","coordinates":[70.0081687,23.2586107]},"properties":{"source":"osm","osm_id":222878253,"osm_type":"way","kind":"generation","name":"Rapar Khokhara","voltage":null,"operator":"Taxus Group","plant_source":"solar","plant_output":"5 MW","capacity_mw":5.0}},{"type":"Feature","geometry":{"type":"Point","coordinates":[72.304386,27.3862115]},"properties":{"source":"osm","osm_id":222885307,"osm_type":"way","kind":"generation","name":"Bap - Punj Lloyd","voltage":null,"operator":null,"plant_source":"solar","plant_output":"5 MW","capacity_mw":5.0}},{"type":"Feature","geometry":{"type":"Point","coordinates":[72.1622751,27.4037329]},"properties":{"source":"osm","osm_id":222885308,"osm_type":"way","kind":"generation","name":"Rawra Viraj Solar Field","voltage":null,"operator":null,"plant_source":"solar","plant_output":"5 MW","capacity_mw":5.0}},{"type":"Feature","geometry":{"type":"Point","coordinates":[72.1539312,27.395816]},"properties":{"source":"osm","osm_id":222885310,"osm_type":"way","kind":"generation","name":"Rawra Tracker","voltage":null,"operator":null,"plant_source":"solar","plant_output":"5 MW","capacity_mw":5.0}},{"type":"Feature","geometry":{"type":"Point","coordinates":[82.0839749,27.0793716]},"properties":{"source":"osm","osm_id":223672954,"osm_type":"way","kind":"generation","name":"Kundarkhi Thermal Power Station","voltage":null,"operator":"Bajaj Energy Limited","plant_source":"coal","plant_output":"90 MW","capacity_mw":90.0}},{"type":"Feature","geometry":{"type":"Point","coordinates":[69.7120467,22.3080056]},"properties":{"source":"osm","osm_id":223725824,"osm_type":"way","kind":"generation","name":"Essar Power","voltage":null,"operator":"Essar Energy","plant_source":"coal","plant_output":"1200 MW","capacity_mw":1200.0}},{"type":"Feature","geometry":{"type":"Point","coordinates":[76.0957413,24.5258055]},"properties":{"source":"osm","osm_id":225138391,"osm_type":"way","kind":"generation","name":"Kalisindh Thermal Power Station","voltage":null,"operator":"Rajasthan Rajya Vidyut Utpadan Nigam","plant_source":"coal","plant_output":"1200 MW","capacity_mw":1200.0}},{"type":"Feature","geometry":{"type":"Point","coordinates":[73.2003389,23.4424671]},"properties":{"source":"osm","osm_id":226097008,"osm_type":"way","kind":"generation","name":"Azure","voltage":null,"operator":null,"plant_source":"solar","plant_output":"10 MW","capacity_mw":10.0}},{"type":"Feature","geometry":{"type":"Point","coordinates":[71.4652111,20.8990236]},"properties":{"source":"osm","osm_id":226111719,"osm_type":"way","kind":"generation","name":"GSPC Pipavav Power Company Ltd.","voltage":null,"operator":null,"plant_source":"gas","plant_output":"702 MW","capacity_mw":702.0}},{"type":"Feature","geometry":{"type":"Point","coordinates":[70.6915227,20.8368331]},"properties":{"source":"osm","osm_id":226739658,"osm_type":"way","kind":"generation","name":"Gujarat Cement Works Power Station","voltage":null,"operator":null,"plant_source":"coal","plant_output":null,"capacity_mw":null}},{"type":"Feature","geometry":{"type":"Point","coordinates":[75.985602,32.5969623]},"properties":{"source":"osm","osm_id":226985822,"osm_type":"way","kind":"generation","name":"Chamera Dam","voltage":null,"operator":null,"plant_source":"hydro","plant_output":null,"capacity_mw":null}},{"type":"Feature","geometry":{"type":"Point","coordinates":[72.0098531,26.787298]},"properties":{"source":"osm","osm_id":230037276,"osm_type":"way","kind":"generation","name":"Dhirubhai Ambani Solar Park","voltage":null,"operator":null,"plant_source":"solar","plant_output":"100 MW","capacity_mw":100.0}},{"type":"Feature","geometry":{"type":"Point","coordinates":[83.9167645,21.3528497]},"properties":{"source":"osm","osm_id":230495254,"osm_type":"way","kind":"generation","name":"Chiplima Hydro Electric Project","voltage":null,"operator":"Odisha Hydro Power Corporation (OHPC)","plant_source":"hydro","plant_output":"72 MW","capacity_mw":72.0}},{"type":"Feature","geometry":{"type":"Point","coordinates":[83.8528439,21.5170302]},"properties":{"source":"osm","osm_id":230495255,"osm_type":"way","kind":"generation","name":"Powe House - Burla","voltage":null,"operator":"Odisha Hydro Power Corporation (OHPC)","plant_source":"hydro","plant_output":"275.5 MW","capacity_mw":275.5}},{"type":"Feature","geometry":{"type":"Point","coordinates":[83.8650286,21.6905505]},"properties":{"source":"osm","osm_id":230495257,"osm_type":"way","kind":"generation","name":"IB Thermal Power Plant","voltage":null,"operator":"Odisha Power Generation Corporation","plant_source":"coal","plant_output":"1740 MW","capacity_mw":1740.0}},{"type":"Feature","geometry":{"type":"Point","coordinates":[82.8595848,19.4269759]},"properties":{"source":"osm","osm_id":230905848,"osm_type":"way","kind":"generation","name":"Indravati Dam","voltage":null,"operator":null,"plant_source":"hydro","plant_output":"600 MW","capacity_mw":600.0}},{"type":"Feature","geometry":{"type":"Point","coordinates":[82.4409912,18.5084063]},"properties":{"source":"osm","osm_id":231025865,"osm_type":"way","kind":"generation","name":"Machkund Hydro Electric (Joint) Scheme","voltage":null,"operator":null,"plant_source":"hydro","plant_output":"114.75 MW","capacity_mw":114.75}},{"type":"Feature","geometry":{"type":"Point","coordinates":[82.1359977,18.7462678]},"properties":{"source":"osm","osm_id":231025869,"osm_type":"way","kind":"generation","name":"Middle Kolab Project","voltage":null,"operator":null,"plant_source":"hydro","plant_output":"25 MW","capacity_mw":25.0}},{"type":"Feature","geometry":{"type":"Point","coordinates":[82.9124947,18.7730827]},"properties":{"source":"osm","osm_id":231025870,"osm_type":"way","kind":"generation","name":"National Aluminum Company Limited","voltage":null,"operator":null,"plant_source":"coal","plant_output":null,"capacity_mw":null}},{"type":"Feature","geometry":{"type":"Point","coordinates":[82.593731,18.8316295]},"properties":{"source":"osm","osm_id":231025874,"osm_type":"way","kind":"generation","name":"Upper Kolab Hydro Electric Project","voltage":null,"operator":null,"plant_source":"hydro","plant_output":"320 MW","capacity_mw":320.0}},{"type":"Feature","geometry":{"type":"Point","coordinates":[85.208218,20.913111]},"properties":{"source":"osm","osm_id":231258311,"osm_type":"way","kind":"generation","name":"Talcher Thermal Power Station","voltage":null,"operator":"NTPC","plant_source":"coal","plant_output":"460 MW","capacity_mw":460.0}},{"type":"Feature","geometry":{"type":"Point","coordinates":[86.0496258,20.961104]},"properties":{"source":"osm","osm_id":231258313,"osm_type":"way","kind":"generation","name":"Duburi Steel Power Plant","voltage":null,"operator":null,"plant_source":"coal","plant_output":"yes","capacity_mw":null}},{"type":"Feature","geometry":{"type":"Point","coordinates":[83.9064635,21.5299494]},"properties":{"source":"osm","osm_id":231258321,"osm_type":"way","kind":"generation","name":"Hirakud Captive Power Plant","voltage":null,"operator":"Hindalco","plant_source":"coal","plant_output":"467.5 MW","capacity_mw":467.5}},{"type":"Feature","geometry":{"type":"Point","coordinates":[74.0313259,34.0917996]},"properties":{"source":"osm","osm_id":231807833,"osm_type":"way","kind":"generation","name":"URI II","voltage":null,"operator":null,"plant_source":"hydro","plant_output":null,"capacity_mw":null}},{"type":"Feature","geometry":{"type":"Point","coordinates":[73.3924357,26.9709076]},"properties":{"source":"osm","osm_id":232311128,"osm_type":"way","kind":"generation","name":"Solar Park, Kheenvsar/Nagaur","voltage":null,"operator":null,"plant_source":"solar","plant_output":"5 MW","capacity_mw":5.0}},{"type":"Feature","geometry":{"type":"Point","coordinates":[76.7694793,11.2429132]},"properties":{"source":"osm","osm_id":234170806,"osm_type":"way","kind":"generation","name":"KUNDAH III/Parali","voltage":null,"operator":"TANGEDCO","plant_source":"hydro","plant_output":null,"capacity_mw":null}},{"type":"Feature","geometry":{"type":"Point","coordinates":[77.6820158,30.4355708]},"properties":{"source":"osm","osm_id":234949920,"osm_type":"way","kind":"generation","name":"Dhalipur Power Plant","voltage":null,"operator":"Uttarakhand Jal Vidyut Nigam Limited","plant_source":"hydro","plant_output":"51 MW","capacity_mw":51.0}},{"type":"Feature","geometry":{"type":"Point","coordinates":[77.6296318,30.428742]},"properties":{"source":"osm","osm_id":234950739,"osm_type":"way","kind":"generation","name":"Kulhal Power Plant","voltage":null,"operator":"Uttarakhand Jal Vidyut Nigam Limited","plant_source":"hydro","plant_output":"30 MW","capacity_mw":30.0}},{"type":"Feature","geometry":{"type":"Point","coordinates":[90.3633492,26.4437565]},"properties":{"source":"osm","osm_id":239498715,"osm_type":"way","kind":"generation","name":"Bongaigaon coal power plant","voltage":null,"operator":"NTPC","plant_source":"coal","plant_output":"750 MW","capacity_mw":750.0}},{"type":"Feature","geometry":{"type":"Point","coordinates":[77.0694286,8.955173]},"properties":{"source":"osm","osm_id":240922951,"osm_type":"way","kind":"generation","name":"Thenmala Dam powerhouse","voltage":null,"operator":null,"plant_source":"hydro","plant_output":"yes","capacity_mw":null}},{"type":"Feature","geometry":{"type":"Point","coordinates":[83.0952453,17.5938397]},"properties":{"source":"osm","osm_id":241951906,"osm_type":"way","kind":"generation","name":"Simhadri Super Thermal Power Station","voltage":null,"operator":"NTPC","plant_source":"coal","plant_output":"2000 MW","capacity_mw":2000.0}},{"type":"Feature","geometry":{"type":"Point","coordinates":[82.0603778,18.2074394]},"properties":{"source":"osm","osm_id":241951911,"osm_type":"way","kind":"generation","name":"Balimela Power House","voltage":null,"operator":null,"plant_source":"hydro","plant_output":"510 MW","capacity_mw":510.0}},{"type":"Feature","geometry":{"type":"Point","coordinates":[81.8106443,17.9328225]},"properties":{"source":"osm","osm_id":241951916,"osm_type":"way","kind":"generation","name":"Donkarayi Power House","voltage":null,"operator":null,"plant_source":"hydro","plant_output":"25 MW","capacity_mw":25.0}},{"type":"Feature","geometry":{"type":"Point","coordinates":[82.0192773,18.0371452]},"properties":{"source":"osm","osm_id":241951918,"osm_type":"way","kind":"generation","name":"Upper Sileru Power House","voltage":null,"operator":"Andhra Pradesh Power Generation Corporation","plant_source":"hydro","plant_output":"240 MW","capacity_mw":240.0}},{"type":"Feature","geometry":{"type":"Point","coordinates":[81.6592761,17.8702666]},"properties":{"source":"osm","osm_id":241951921,"osm_type":"way","kind":"generation","name":"Lower Sileru Power House","voltage":null,"operator":"Andhra Pradesh Power Generation Corporation","plant_source":"hydro","plant_output":"460 MW","capacity_mw":460.0}},{"type":"Feature","geometry":{"type":"Point","coordinates":[82.1390271,17.0388307]},"properties":{"source":"osm","osm_id":241988307,"osm_type":"way","kind":"generation","name":"Samalkot Power Project","voltage":null,"operator":"Reliance Power","plant_source":"gas","plant_output":"220 MW","capacity_mw":220.0}},{"type":"Feature","geometry":{"type":"Point","coordinates":[81.8101541,16.9239974]},"properties":{"source":"osm","osm_id":241988348,"osm_type":"way","kind":"generation","name":"Rajahmundry Power Plant","voltage":null,"operator":"GMR Rajahmundry Energy Limited","plant_source":"gas","plant_output":"768 MW","capacity_mw":768.0}},{"type":"Feature","geometry":{"type":"Point","coordinates":[81.8629548,16.7362223]},"properties":{"source":"osm","osm_id":242167570,"osm_type":"way","kind":"generation","name":"Konaseema Power Plant","voltage":null,"operator":"Konaseema Gas Power Limited","plant_source":"gas","plant_output":"445 MW","capacity_mw":445.0}},{"type":"Feature","geometry":{"type":"Point","coordinates":[80.5527311,16.6399027]},"properties":{"source":"osm","osm_id":242291892,"osm_type":"way","kind":"generation","name":"Lanco Kondapalli Power Plant","voltage":null,"operator":"Lanco","plant_source":"gas","plant_output":"1476 MW","capacity_mw":1476.0}},{"type":"Feature","geometry":{"type":"Point","coordinates":[80.5406878,16.5998551]},"properties":{"source":"osm","osm_id":242291926,"osm_type":"way","kind":"generation","name":"Dr Narla Tata Rao Thermal Power Station","voltage":null,"operator":"Andhra Pradesh Power Generation Corporation","plant_source":"coal","plant_output":"1760 MW","capacity_mw":1760.0}},{"type":"Feature","geometry":{"type":"Point","coordinates":[79.3113092,16.5698209]},"properties":{"source":"osm","osm_id":242543810,"osm_type":"way","kind":"generation","name":"Nagarjunasagar Right Canal power house","voltage":null,"operator":"Andhra Pradesh Power Generation Corporation","plant_source":"hydro","plant_output":"90 MW","capacity_mw":90.0}},{"type":"Feature","geometry":{"type":"Point","coordinates":[79.31396,16.5781964]},"properties":{"source":"osm","osm_id":242543811,"osm_type":"way","kind":"generation","name":"Nagarjunasagar Dam power house","voltage":null,"operator":"Telangana State Power Generation Corporation Limited","plant_source":"hydro","plant_output":"815.6 MW","capacity_mw":815.6}},{"type":"Feature","geometry":{"type":"Point","coordinates":[79.8293215,18.3830826]},"properties":{"source":"osm","osm_id":242702057,"osm_type":"way","kind":"generation","name":"Kakatiya Thermal Power Station","voltage":null,"operator":"Telangana State Power Generation Corporation Limited","plant_source":"coal","plant_output":"1100 MW","capacity_mw":1100.0}},{"type":"Feature","geometry":{"type":"Point","coordinates":[80.8851272,17.8551142]},"properties":{"source":"osm","osm_id":242749525,"osm_type":"way","kind":"generation","name":null,"voltage":null,"operator":null,"plant_source":"hydro","plant_output":"24 MW","capacity_mw":24.0}},{"type":"Feature","geometry":{"type":"Point","coordinates":[79.204223,20.0129779]},"properties":{"source":"osm","osm_id":242827252,"osm_type":"way","kind":"generation","name":"Dhariwal Power Plant","voltage":null,"operator":null,"plant_source":"coal","plant_output":"600 MW","capacity_mw":600.0}},{"type":"Feature","geometry":{"type":"Point","coordinates":[77.7040679,16.3326059]},"properties":{"source":"osm","osm_id":244894492,"osm_type":"way","kind":"generation","name":"Jurala","voltage":null,"operator":"Telangana State Power Generation Corporation Limited","plant_source":"hydro","plant_output":"234 MW","capacity_mw":234.0}},{"type":"Feature","geometry":{"type":"Point","coordinates":[78.9029278,16.0953046]},"properties":{"source":"osm","osm_id":245128386,"osm_type":"way","kind":"generation","name":"Srisailam left power station","voltage":null,"operator":"Telangana State Power Generation Corporation Limited","plant_source":"hydro","plant_output":"900 MW","capacity_mw":900.0}},{"type":"Feature","geometry":{"type":"Point","coordinates":[78.901444,16.0887047]},"properties":{"source":"osm","osm_id":245128484,"osm_type":"way","kind":"generation","name":"Srisailam right power station","voltage":null,"operator":"Andhra Pradesh Power Generation Corporation","plant_source":"hydro","plant_output":"770 MW","capacity_mw":770.0}},{"type":"Feature","geometry":{"type":"Point","coordinates":[78.4555571,14.7037753]},"properties":{"source":"osm","osm_id":245128513,"osm_type":"way","kind":"generation","name":"Rayalaseema Thermal Power Station","voltage":"220000","operator":"Andhra Pradesh Power Generation Corporation","plant_source":"coal","plant_output":"1650 MW","capacity_mw":1650.0}},{"type":"Feature","geometry":{"type":"Point","coordinates":[82.290914,22.1291184]},"properties":{"source":"osm","osm_id":248385257,"osm_type":"way","kind":"generation","name":"Sipat Thermal Power Station","voltage":null,"operator":"National Thermal Power Corporation","plant_source":"coal","plant_output":"2980 MW","capacity_mw":2980.0}},{"type":"Feature","geometry":{"type":"Point","coordinates":[83.5350716,22.1284377]},"properties":{"source":"osm","osm_id":248385293,"osm_type":"way","kind":"generation","name":"Dongamahua Power Plant","voltage":null,"operator":null,"plant_source":"coal","plant_output":"540 MW","capacity_mw":540.0}},{"type":"Feature","geometry":{"type":"Point","coordinates":[83.0380851,21.3202503]},"properties":{"source":"osm","osm_id":248481693,"osm_type":"way","kind":"generation","name":"Singhal Forestry","voltage":null,"operator":null,"plant_source":"solar","plant_output":"2 MW","capacity_mw":2.0}},{"type":"Feature","geometry":{"type":"Point","coordinates":[76.1635821,22.2451307]},"properties":{"source":"osm","osm_id":248594484,"osm_type":"way","kind":"generation","name":"Omkareshwar","voltage":null,"operator":null,"plant_source":"hydro","plant_output":"520 MW","capacity_mw":520.0}},{"type":"Feature","geometry":{"type":"Point","coordinates":[75.885912,16.3279486]},"properties":{"source":"osm","osm_id":250565698,"osm_type":"way","kind":"generation","name":"Almatti Dam Power House","voltage":null,"operator":"Karnataka Power Corporation Limited","plant_source":"hydro","plant_output":"290 MW","capacity_mw":290.0}},{"type":"Feature","geometry":{"type":"Point","coordinates":[74.5277344,15.27583]},"properties":{"source":"osm","osm_id":251093125,"osm_type":"way","kind":"generation","name":"Supa Dam Powerhouse","voltage":null,"operator":"Karnataka Power Corporation Limited","plant_source":"hydro","plant_output":"100 MW","capacity_mw":100.0}},{"type":"Feature","geometry":{"type":"Point","coordinates":[76.3286662,15.2666829]},"properties":{"source":"osm","osm_id":251260587,"osm_type":"way","kind":"generation","name":"Munirabad Powerhouse","voltage":null,"operator":"Karnataka Power Corporation Limited","plant_source":"hydro","plant_output":"28 MW","capacity_mw":28.0}},{"type":"Feature","geometry":{"type":"Point","coordinates":[76.3379372,15.2615009]},"properties":{"source":"osm","osm_id":251260592,"osm_type":"way","kind":"generation","name":"Tungabhadra dam Powerhouse","voltage":null,"operator":"Andhra Pradesh Power Generation Corporation","plant_source":"hydro","plant_output":"36 MW","capacity_mw":36.0}},{"type":"Feature","geometry":{"type":"Point","coordinates":[76.4972733,15.3161661]},"properties":{"source":"osm","osm_id":251260593,"osm_type":"way","kind":"generation","name":"Hampi Powerhouse","voltage":null,"operator":"Andhra Pradesh Power Generation Corporation","plant_source":"hydro","plant_output":"36 MW","capacity_mw":36.0}},{"type":"Feature","geometry":{"type":"Point","coordinates":[75.8929223,11.547763]},"properties":{"source":"osm","osm_id":252720317,"osm_type":"way","kind":"generation","name":"Kuttiady Trailrace Power House","voltage":null,"operator":"KSEB","plant_source":"hydro","plant_output":null,"capacity_mw":null}},{"type":"Feature","geometry":{"type":"Point","coordinates":[75.2316807,29.9168901]},"properties":{"source":"osm","osm_id":255035532,"osm_type":"way","kind":"generation","name":"Talwandi Sabo Power Limited","voltage":null,"operator":null,"plant_source":"coal","plant_output":"1980 MW","capacity_mw":1980.0}},{"type":"Feature","geometry":{"type":"Point","coordinates":[74.6747904,14.2517435]},"properties":{"source":"osm","osm_id":255614914,"osm_type":"way","kind":"generation","name":"Gerusoppa Dam Powerhouse","voltage":null,"operator":"Karnataka Power Corporation Limited","plant_source":"hydro","plant_output":"240 MW","capacity_mw":240.0}},{"type":"Feature","geometry":{"type":"Point","coordinates":[74.3537202,14.8965317]},"properties":{"source":"osm","osm_id":255614915,"osm_type":"way","kind":"generation","name":"Kadra Dam Power House","voltage":null,"operator":"Karnataka Power Corporation Limited","plant_source":"hydro","plant_output":"150 MW","capacity_mw":150.0}},{"type":"Feature","geometry":{"type":"Point","coordinates":[74.7994537,14.2273467]},"properties":{"source":"osm","osm_id":255614918,"osm_type":"way","kind":"generation","name":"Mahathma Gandhi Hydro Electric Station","voltage":null,"operator":"Karnataka Power Corporation Limited","plant_source":"hydro","plant_output":"139.2 MW","capacity_mw":139.2}},{"type":"Feature","geometry":{"type":"Point","coordinates":[74.7675275,14.2350694]},"properties":{"source":"osm","osm_id":255614923,"osm_type":"way","kind":"generation","name":"Sharavati Generating Station","voltage":null,"operator":"Karnataka Power Corporation Limited","plant_source":"hydro","plant_output":"1035 MW","capacity_mw":1035.0}},{"type":"Feature","geometry":{"type":"Point","coordinates":[74.5345876,14.9201489]},"properties":{"source":"osm","osm_id":255614926,"osm_type":"way","kind":"generation","name":"Kodasalli Dam Power House","voltage":null,"operator":"Karnataka Power Corporation Limited","plant_source":"hydro","plant_output":"120 MW","capacity_mw":120.0}},{"type":"Feature","geometry":{"type":"Point","coordinates":[74.8387032,14.170371]},"properties":{"source":"osm","osm_id":255614930,"osm_type":"way","kind":"generation","name":"Linganamakki Power House","voltage":null,"operator":"Karnataka Power Corporation Limited","plant_source":"hydro","plant_output":"55 MW","capacity_mw":55.0}},{"type":"Feature","geometry":{"type":"Point","coordinates":[74.8029503,13.1600325]},"properties":{"source":"osm","osm_id":256638645,"osm_type":"way","kind":"generation","name":"Udupi Power Corporation Limited","voltage":null,"operator":"Adani Power","plant_source":"coal","plant_output":"1200 MW","capacity_mw":1200.0}},{"type":"Feature","geometry":{"type":"Point","coordinates":[75.6366095,13.7021368]},"properties":{"source":"osm","osm_id":256638747,"osm_type":"way","kind":"generation","name":"Bhadra Left Bank Canal Powerhouse","voltage":null,"operator":"Karnataka Power Corporation Limited","plant_source":"hydro","plant_output":"26 MW","capacity_mw":26.0}},{"type":"Feature","geometry":{"type":"Point","coordinates":[80.0948579,29.0057275]},"properties":{"source":"osm","osm_id":256704079,"osm_type":"way","kind":"generation","name":"power house","voltage":null,"operator":null,"plant_source":"hydro","plant_output":"yes","capacity_mw":null}},{"type":"Feature","geometry":{"type":"Point","coordinates":[74.8155524,12.9016033]},"properties":{"source":"osm","osm_id":258649221,"osm_type":"way","kind":"generation","name":"Thannirbhavi Power Plant","voltage":null,"operator":null,"plant_source":"gas","plant_output":"220 MW","capacity_mw":220.0}},{"type":"Feature","geometry":{"type":"Point","coordinates":[76.8798411,29.3968857]},"properties":{"source":"osm","osm_id":259587456,"osm_type":"way","kind":"generation","name":"Panipat Thermal Power Station","voltage":null,"operator":"Haryana Power Generation Corporation Limited","plant_source":"coal","plant_output":"710 MW","capacity_mw":710.0}},{"type":"Feature","geometry":{"type":"Point","coordinates":[91.9003476,25.6592554]},"properties":{"source":"osm","osm_id":272518535,"osm_type":"way","kind":"generation","name":"UMIAM I II &IV","voltage":null,"operator":null,"plant_source":"hydro","plant_output":null,"capacity_mw":null}},{"type":"Feature","geometry":{"type":"Point","coordinates":[77.3237051,28.6231219]},"properties":{"source":"osm","osm_id":283807712,"osm_type":"way","kind":"generation","name":"Bio-Gas Plant","voltage":null,"operator":null,"plant_source":"biogas","plant_output":null,"capacity_mw":null}},{"type":"Feature","geometry":{"type":"Point","coordinates":[77.1983203,12.3382967]},"properties":{"source":"osm","osm_id":283880661,"osm_type":"way","kind":"generation","name":"Shimsha Hydro Electric Station","voltage":null,"operator":"Karnataka Power Corporation Limited","plant_source":"hydro","plant_output":"17.2 MW","capacity_mw":17.2}},{"type":"Feature","geometry":{"type":"Point","coordinates":[76.9570456,9.962295]},"properties":{"source":"osm","osm_id":285660506,"osm_type":"way","kind":"generation","name":"Lower Periyar Dam","voltage":null,"operator":"Kerala State Electricity Board","plant_source":"hydro","plant_output":null,"capacity_mw":null}},{"type":"Feature","geometry":{"type":"Point","coordinates":[73.3499601,18.4426876]},"properties":{"source":"osm","osm_id":294846627,"osm_type":"way","kind":"generation","name":"Bhira Tail Race hydro power station","voltage":null,"operator":null,"plant_source":"hydro","plant_output":"80 MW","capacity_mw":80.0}},{"type":"Feature","geometry":{"type":"Point","coordinates":[69.8669379,22.3230732]},"properties":{"source":"osm","osm_id":295429703,"osm_type":"way","kind":"generation","name":null,"voltage":null,"operator":null,"plant_source":"oil","plant_output":"720 MW","capacity_mw":720.0}},{"type":"Feature","geometry":{"type":"Point","coordinates":[73.1982407,27.8461113]},"properties":{"source":"osm","osm_id":295482053,"osm_type":"way","kind":"generation","name":"Barsingsar Thermal Power Station","voltage":null,"operator":"Neyveli Lignite Corporation","plant_source":"coal","plant_output":"250 MW","capacity_mw":250.0}},{"type":"Feature","geometry":{"type":"Point","coordinates":[77.568373,30.3032941]},"properties":{"source":"osm","osm_id":299881709,"osm_type":"way","kind":"generation","name":"WY.CANAL A -D","voltage":null,"operator":"Haryana Power Generation Corporation Limited","plant_source":"hydro","plant_output":"16 MW","capacity_mw":16.0}},{"type":"Feature","geometry":{"type":"Point","coordinates":[77.5304614,30.2812268]},"properties":{"source":"osm","osm_id":299881712,"osm_type":"way","kind":"generation","name":null,"voltage":null,"operator":"Haryana Power Generation Corporation Limited","plant_source":"hydro","plant_output":"16 MW","capacity_mw":16.0}},{"type":"Feature","geometry":{"type":"Point","coordinates":[77.488387,30.2627831]},"properties":{"source":"osm","osm_id":299881714,"osm_type":"way","kind":"generation","name":null,"voltage":null,"operator":"Haryana Power Generation Corporation Limited","plant_source":"hydro","plant_output":"16 MW","capacity_mw":16.0}},{"type":"Feature","geometry":{"type":"Point","coordinates":[77.4514304,30.2488337]},"properties":{"source":"osm","osm_id":299881715,"osm_type":"way","kind":"generation","name":null,"voltage":null,"operator":"Haryana Power Generation Corporation Limited","plant_source":"hydro","plant_output":"16 MW","capacity_mw":16.0}},{"type":"Feature","geometry":{"type":"Point","coordinates":[72.2244037,27.6019813]},"properties":{"source":"osm","osm_id":300053090,"osm_type":"way","kind":"generation","name":"Godawari Green Energy Limited CSP","voltage":null,"operator":"Godawari Green Energy Limited","plant_source":"solar","plant_output":"50 MW","capacity_mw":50.0}},{"type":"Feature","geometry":{"type":"Point","coordinates":[74.1857452,34.14451]},"properties":{"source":"osm","osm_id":304788297,"osm_type":"way","kind":"generation","name":"URI I","voltage":null,"operator":null,"plant_source":"hydro","plant_output":null,"capacity_mw":null}},{"type":"Feature","geometry":{"type":"Point","coordinates":[75.986686,17.549606]},"properties":{"source":"osm","osm_id":305565392,"osm_type":"way","kind":"generation","name":"Solapur Thermal Power Plant","voltage":null,"operator":"NTPC","plant_source":"coal","plant_output":"1320 MW","capacity_mw":1320.0}},{"type":"Feature","geometry":{"type":"Point","coordinates":[73.4176169,19.5132708]},"properties":{"source":"osm","osm_id":306654372,"osm_type":"way","kind":"generation","name":"Bhatsa Dam","voltage":null,"operator":null,"plant_source":"hydro","plant_output":null,"capacity_mw":null}},{"type":"Feature","geometry":{"type":"Point","coordinates":[80.6940858,17.6167883]},"properties":{"source":"osm","osm_id":308319903,"osm_type":"way","kind":"generation","name":"Kothagudem Thermal Power Station","voltage":null,"operator":"Telangana State Power Generation Corporation Limited","plant_source":"coal","plant_output":"1800 MW","capacity_mw":1800.0}},{"type":"Feature","geometry":{"type":"Point","coordinates":[81.7243081,16.934099]},"properties":{"source":"osm","osm_id":308740411,"osm_type":"way","kind":"generation","name":"Vijjeswaram Gas Power Plant","voltage":null,"operator":"Andhra Pradesh Gas Power Corporation Limited","plant_source":"gas","plant_output":"272 MW","capacity_mw":272.0}},{"type":"Feature","geometry":{"type":"Point","coordinates":[83.1205846,21.886745]},"properties":{"source":"osm","osm_id":308983813,"osm_type":"way","kind":"generation","name":"Uchpinda Power Station","voltage":null,"operator":"RKM Powergen Pvt. Ltd.","plant_source":"coal","plant_output":"1440 MW","capacity_mw":1440.0}},{"type":"Feature","geometry":{"type":"Point","coordinates":[78.9779785,20.2821409]},"properties":{"source":"osm","osm_id":308983814,"osm_type":"way","kind":"generation","name":"GMR Warora Energy Power Plant","voltage":null,"operator":"GMR Warora Energy Limited","plant_source":"coal","plant_output":"600 MW","capacity_mw":600.0}},{"type":"Feature","geometry":{"type":"Point","coordinates":[83.1299372,21.907181]},"properties":{"source":"osm","osm_id":308983816,"osm_type":"way","kind":"generation","name":"Athena Chhattisgarh power station","voltage":null,"operator":"Athena Chhattisgarh Power Limited","plant_source":"coal","plant_output":"1200 MW","capacity_mw":1200.0}},{"type":"Feature","geometry":{"type":"Point","coordinates":[77.1905168,9.6267025]},"properties":{"source":"osm","osm_id":310070118,"osm_type":"way","kind":"generation","name":"Periyar hydro power station","voltage":null,"operator":null,"plant_source":"hydro","plant_output":"161 MW","capacity_mw":161.0}},{"type":"Feature","geometry":{"type":"Point","coordinates":[77.2726549,9.6202309]},"properties":{"source":"osm","osm_id":310070120,"osm_type":"way","kind":"generation","name":"Suruliyar","voltage":"110000","operator":"TANGEDCO","plant_source":"hydro","plant_output":null,"capacity_mw":null}},{"type":"Feature","geometry":{"type":"Point","coordinates":[78.9235724,9.3492655]},"properties":{"source":"osm","osm_id":310430102,"osm_type":"way","kind":"generation","name":"Valathur","voltage":null,"operator":"Tamil Nadu Generation and Distribution Corporation","plant_source":"gas","plant_output":"187 MW","capacity_mw":187.0}},{"type":"Feature","geometry":{"type":"Point","coordinates":[76.3738466,9.9979131]},"properties":{"source":"osm","osm_id":310521022,"osm_type":"way","kind":"generation","name":"Brahmapuram Diesel Power Plant","voltage":null,"operator":"Kerala State Electricity Board Limited","plant_source":"diesel","plant_output":"63.96 MW","capacity_mw":63.96}},{"type":"Feature","geometry":{"type":"Point","coordinates":[82.6243262,23.9709238]},"properties":{"source":"osm","osm_id":311130978,"osm_type":"way","kind":"generation","name":"Sasan UMPP","voltage":null,"operator":"Reliance","plant_source":"coal","plant_output":"3960 MW","capacity_mw":3960.0}},{"type":"Feature","geometry":{"type":"Point","coordinates":[72.3118808,27.4795682]},"properties":{"source":"osm","osm_id":311222081,"osm_type":"way","kind":"generation","name":"Manchitiya Jakson","voltage":null,"operator":null,"plant_source":"solar","plant_output":"24 MW","capacity_mw":24.0}},{"type":"Feature","geometry":{"type":"Point","coordinates":[72.1260941,26.9717998]},"properties":{"source":"osm","osm_id":311222082,"osm_type":"way","kind":"generation","name":"Ugaras","voltage":null,"operator":null,"plant_source":"solar","plant_output":"20 MW","capacity_mw":20.0}},{"type":"Feature","geometry":{"type":"Point","coordinates":[72.3240989,27.4391509]},"properties":{"source":"osm","osm_id":311222085,"osm_type":"way","kind":"generation","name":"Bavadi Barsingha","voltage":null,"operator":null,"plant_source":"solar","plant_output":"36","capacity_mw":36.0}},{"type":"Feature","geometry":{"type":"Point","coordinates":[72.3184405,27.3841714]},"properties":{"source":"osm","osm_id":311222087,"osm_type":"way","kind":"generation","name":"Bap - GIS 1-2","voltage":null,"operator":null,"plant_source":"solar","plant_output":"15 MW","capacity_mw":15.0}},{"type":"Feature","geometry":{"type":"Point","coordinates":[72.3136676,27.3888156]},"properties":{"source":"osm","osm_id":311222088,"osm_type":"way","kind":"generation","name":"Bap - GIS 3","voltage":null,"operator":null,"plant_source":"solar","plant_output":"10 MW","capacity_mw":10.0}},{"type":"Feature","geometry":{"type":"Point","coordinates":[72.8409072,27.8590025]},"properties":{"source":"osm","osm_id":311222093,"osm_type":"way","kind":"generation","name":"Gurha SM","voltage":null,"operator":null,"plant_source":"solar","plant_output":"10 MW","capacity_mw":10.0}},{"type":"Feature","geometry":{"type":"Point","coordinates":[72.2829825,27.4668792]},"properties":{"source":"osm","osm_id":311222099,"osm_type":"way","kind":"generation","name":"Lumbaniya","voltage":null,"operator":null,"plant_source":"solar","plant_output":"13","capacity_mw":13.0}},{"type":"Feature","geometry":{"type":"Point","coordinates":[72.8528479,26.5191759]},"properties":{"source":"osm","osm_id":311566564,"osm_type":"way","kind":"generation","name":"Tinwari - MB Solar Power Plant","voltage":null,"operator":null,"plant_source":"solar","plant_output":"5 MW","capacity_mw":5.0}},{"type":"Feature","geometry":{"type":"Point","coordinates":[72.8568513,26.5338885]},"properties":{"source":"osm","osm_id":311566565,"osm_type":"way","kind":"generation","name":"Tinwari Swiss","voltage":null,"operator":null,"plant_source":"solar","plant_output":"5.2 MW","capacity_mw":5.2}},{"type":"Feature","geometry":{"type":"Point","coordinates":[72.8615324,26.525313]},"properties":{"source":"osm","osm_id":311566568,"osm_type":"way","kind":"generation","name":"Tinwari AES","voltage":null,"operator":null,"plant_source":"solar","plant_output":"5 MW","capacity_mw":5.0}},{"type":"Feature","geometry":{"type":"Point","coordinates":[81.8572654,21.4513572]},"properties":{"source":"osm","osm_id":311954679,"osm_type":"way","kind":"generation","name":"GMR Chhattisgarh Energy Limited","voltage":null,"operator":null,"plant_source":"coal","plant_output":"1370 MW","capacity_mw":1370.0}},{"type":"Feature","geometry":{"type":"Point","coordinates":[83.2045015,22.013822]},"properties":{"source":"osm","osm_id":311954711,"osm_type":"way","kind":"generation","name":"Binjkote Power Station","voltage":null,"operator":"SKS Power Generation (Chhattisgarh) Limited","plant_source":"coal","plant_output":"600 MW","capacity_mw":600.0}},{"type":"Feature","geometry":{"type":"Point","coordinates":[75.7636909,30.773596]},"properties":{"source":"osm","osm_id":312278295,"osm_type":"way","kind":"generation","name":"Mini Hydal Plant","voltage":null,"operator":null,"plant_source":"hydro","plant_output":null,"capacity_mw":null}},{"type":"Feature","geometry":{"type":"Point","coordinates":[76.3191259,10.0735159]},"properties":{"source":"osm","osm_id":314628123,"osm_type":"way","kind":"generation","name":"BSES Kochi Kerala Power Ltd","voltage":null,"operator":"Reliance Infra","plant_source":"oil","plant_output":"165 MW","capacity_mw":165.0}},{"type":"Feature","geometry":{"type":"Point","coordinates":[79.970736,21.4113016]},"properties":{"source":"osm","osm_id":315477177,"osm_type":"way","kind":"generation","name":"Tiroda Thermal Power Project","voltage":null,"operator":"Adani Power","plant_source":"coal","plant_output":"3300 MW","capacity_mw":3300.0}},{"type":"Feature","geometry":{"type":"Point","coordinates":[80.088014,14.206313]},"properties":{"source":"osm","osm_id":315758488,"osm_type":"way","kind":"generation","name":"Simhapuri Power Plant","voltage":null,"operator":null,"plant_source":"coal","plant_output":"600 MW","capacity_mw":600.0}},{"type":"Feature","geometry":{"type":"Point","coordinates":[80.1472541,14.3305462]},"properties":{"source":"osm","osm_id":315758494,"osm_type":"way","kind":"generation","name":"Thermal Powertech Power Plant","voltage":null,"operator":"Sembcorp Energy India Limited","plant_source":"coal","plant_output":"1320 MW","capacity_mw":1320.0}},{"type":"Feature","geometry":{"type":"Point","coordinates":[80.0930535,14.2140402]},"properties":{"source":"osm","osm_id":315758504,"osm_type":"way","kind":"generation","name":"Meenakshi Thamminapatnam Thermal Power Plant","voltage":null,"operator":"Meenakshi Group","plant_source":"coal","plant_output":"1000 MW","capacity_mw":1000.0}},{"type":"Feature","geometry":{"type":"Point","coordinates":[80.1504899,14.3564538]},"properties":{"source":"osm","osm_id":315758518,"osm_type":"way","kind":"generation","name":"Sembcorp Gayatri Power Limited (NCC)","voltage":null,"operator":"Sembcorp Energy India Limited","plant_source":"coal","plant_output":"1320 MW","capacity_mw":1320.0}},{"type":"Feature","geometry":{"type":"Point","coordinates":[80.1216292,14.3263881]},"properties":{"source":"osm","osm_id":315758532,"osm_type":"way","kind":"generation","name":"Sri Damodaram Sanjeevaiah Thermal Power Station","voltage":null,"operator":null,"plant_source":"coal","plant_output":"2400 MW","capacity_mw":2400.0}},{"type":"Feature","geometry":{"type":"Point","coordinates":[76.253344,32.472754]},"properties":{"source":"osm","osm_id":316835848,"osm_type":"way","kind":"generation","name":"CHAMERA II","voltage":null,"operator":null,"plant_source":"hydro","plant_output":null,"capacity_mw":null}},{"type":"Feature","geometry":{"type":"Point","coordinates":[86.6576229,23.6209637]},"properties":{"source":"osm","osm_id":316973340,"osm_type":"way","kind":"generation","name":"Raghunathpur Thermal Power Station","voltage":null,"operator":"Damodar Valley Corporation","plant_source":"coal","plant_output":"1200 MW","capacity_mw":1200.0}},{"type":"Feature","geometry":{"type":"Point","coordinates":[75.50381,19.8810301]},"properties":{"source":"osm","osm_id":317985947,"osm_type":"way","kind":"generation","name":"GAPS Power\u2019s Bio Mass Power","voltage":null,"operator":"GAPS Power & Infrastucture","plant_source":"biomass","plant_output":"13 MW","capacity_mw":13.0}},{"type":"Feature","geometry":{"type":"Point","coordinates":[78.135934,24.3172186]},"properties":{"source":"osm","osm_id":319414989,"osm_type":"way","kind":"generation","name":"Bina TPS","voltage":null,"operator":"Jaiprakash Power Ventures Limited","plant_source":"coal","plant_output":"500 MW","capacity_mw":500.0}},{"type":"Feature","geometry":{"type":"Point","coordinates":[72.9381928,26.7880467]},"properties":{"source":"osm","osm_id":319632918,"osm_type":"way","kind":"generation","name":"Betwasiya","voltage":null,"operator":null,"plant_source":"solar","plant_output":"5 MW","capacity_mw":5.0}},{"type":"Feature","geometry":{"type":"Point","coordinates":[72.9833455,26.7437597]},"properties":{"source":"osm","osm_id":319632919,"osm_type":"way","kind":"generation","name":"Bhambuo Ki Dhani","voltage":null,"operator":null,"plant_source":"solar","plant_output":"5 MW","capacity_mw":5.0}},{"type":"Feature","geometry":{"type":"Point","coordinates":[75.6235709,24.8766056]},"properties":{"source":"osm","osm_id":319865364,"osm_type":"way","kind":"generation","name":"Rajasthan Atomic Power Station","voltage":null,"operator":null,"plant_source":"nuclear","plant_output":"1085 MW","capacity_mw":1085.0}},{"type":"Feature","geometry":{"type":"Point","coordinates":[72.2234876,21.5858931]},"properties":{"source":"osm","osm_id":321090332,"osm_type":"way","kind":"generation","name":"Bhavnagar Padva Power Plant","voltage":null,"operator":null,"plant_source":"coal","plant_output":"500 MW","capacity_mw":500.0}},{"type":"Feature","geometry":{"type":"Point","coordinates":[72.7856737,24.5164743]},"properties":{"source":"osm","osm_id":321648640,"osm_type":"way","kind":"generation","name":"India One","voltage":null,"operator":null,"plant_source":"solar","plant_output":null,"capacity_mw":null}},{"type":"Feature","geometry":{"type":"Point","coordinates":[84.0908206,24.702005]},"properties":{"source":"osm","osm_id":324059199,"osm_type":"way","kind":"generation","name":"Nabinagar Thermal Power Project","voltage":null,"operator":"Bhartiya Rail Bijlee Company Limited","plant_source":"coal","plant_output":"1000 MW","capacity_mw":1000.0}},{"type":"Feature","geometry":{"type":"Point","coordinates":[72.6710105,23.2497234]},"properties":{"source":"osm","osm_id":326055781,"osm_type":"way","kind":"generation","name":"Gandhinagar Thermal Power Station","voltage":null,"operator":"Gujarat State Electricity Corporation Limited","plant_source":"coal","plant_output":"630 MW","capacity_mw":630.0}},{"type":"Feature","geometry":{"type":"Point","coordinates":[83.9076894,27.409163]},"properties":{"source":"osm","osm_id":327318726,"osm_type":"way","kind":"generation","name":"Eastern Gandak Canal H.E. Project","voltage":null,"operator":null,"plant_source":"hydro","plant_output":"15 MW","capacity_mw":15.0}},{"type":"Feature","geometry":{"type":"Point","coordinates":[81.9089763,24.1536074]},"properties":{"source":"osm","osm_id":328548849,"osm_type":"way","kind":"generation","name":"Jaypee Nigrie Super Thermal Power Plant","voltage":null,"operator":"Jaiprakash Power Ventures Limited","plant_source":"coal","plant_output":"1320 MW","capacity_mw":1320.0}},{"type":"Feature","geometry":{"type":"Point","coordinates":[76.876183,31.3821876]},"properties":{"source":"osm","osm_id":330267981,"osm_type":"way","kind":"generation","name":"Koldam Dam Powerhouse","voltage":null,"operator":"NTPC Limited","plant_source":"hydro","plant_output":"800 MW","capacity_mw":800.0}},{"type":"Feature","geometry":{"type":"Point","coordinates":[76.8686122,31.4130832]},