{"type":"FeatureCollection","features":[{"type":"Feature","geometry":{"type":"Point","coordinates":[80.2822426,13.0920917]},"properties":{"layer":"heritage","osm_type":"node","osm_id":254122040,"name":"George Town","tags":{"historic":"yes","name":"George Town","name:ml":"\u0d1c\u0d4b\u0d7c\u0d1c\u0d4d\u0d1c\u0d4d \u0d1f\u0d57\u0d7a","name:ta":"\u0bae\u0bc1\u0ba4\u0bcd\u0ba4\u0bbf\u0baf\u0bbe\u0bb2\u0bcd\u0baa\u0bc7\u0b9f\u0bcd\u0b9f\u0bc8","place":"suburb","wikidata":"Q3276293","wikimedia_commons":"Category:George Town, Chennai","wikipedia":"en:George Town, Chennai"}}},{"type":"Feature","geometry":{"type":"Point","coordinates":[80.2628411,13.0800561]},"properties":{"layer":"heritage","osm_type":"node","osm_id":304918810,"name":"Annai Maniammai Statue","tags":{"historic":"monument","name":"Annai Maniammai Statue"}}},{"type":"Feature","geometry":{"type":"Point","coordinates":[80.2837484,13.0641119]},"properties":{"layer":"heritage","osm_type":"node","osm_id":310981471,"name":"Triumph of Labour","tags":{"artist_name":"Debi Prasad Roy Chowdhury","historic":"monument","memorial":"statue","name":"Triumph of Labour","name:ml":"\u0d05\u0d27\u0d4d\u0d35\u0d3e\u0d28\u0d24\u0d4d\u0d24\u0d3f\u0d28\u0d4d\u0d31\u0d46 \u0d35\u0d3f\u0d1c\u0d2f\u0d02","name:ta":"\u0b89\u0bb4\u0bc8\u0baa\u0bcd\u0baa\u0bbf\u0ba9\u0bcd \u0bb5\u0bc6\u0bb1\u0bcd\u0bb1\u0bbf","start_date":"1959-01-25","wikidata":"Q7844567","wikimedia_commons":"Category:Triumph of Labour","wikipedia":"en:Triumph of Labour"}}},{"type":"Feature","geometry":{"type":"Point","coordinates":[80.2800154,13.0433301]},"properties":{"layer":"heritage","osm_type":"node","osm_id":310981680,"name":"Gandhi","tags":{"artist:wikidata":"Q12430825","artist_name":"Debi Prasad Roy Choudhury","historic":"memorial","material":"bronze","memorial":"statue","name":"Gandhi","start_date":"1959","subject:wikidata":"Q1001"}}},{"type":"Feature","geometry":{"type":"Point","coordinates":[80.2121781,13.0348481]},"properties":{"layer":"heritage","osm_type":"node","osm_id":315260499,"name":"Ashok Pillar","tags":{"historic":"monument","inscription":"Major landmark for Ashok Nagar, named after this Ashoka Pillar","name":"Ashok Pillar"}}},{"type":"Feature","geometry":{"type":"Point","coordinates":[80.1918429,12.6165678]},"properties":{"layer":"heritage","osm_type":"node","osm_id":353978517,"name":"Ramanuja Mandapam","tags":{"historic":"ruins","name":"Ramanuja Mandapam","name:ta":"\u0bb0\u0bbe\u0bae\u0bbe\u0ba9\u0bc1\u0b9c \u0bae\u0ba3\u0bcd\u0b9f\u0baa\u0bae\u0bcd","tourism":"attraction"}}},{"type":"Feature","geometry":{"type":"Point","coordinates":[80.1926969,12.6179087]},"properties":{"layer":"heritage","osm_type":"node","osm_id":353978523,"name":"Arjuna's Penance","tags":{"historic":"ruins","name":"Arjuna's Penance","name:ta":"\u0b85\u0bb0\u0bcd\u0b9a\u0bcd\u0b9a\u0bc1\u0ba9\u0ba9\u0bcd \u0ba4\u0baa\u0b9a\u0bc1","tourism":"attraction","wikidata":"Q1753664","wikipedia":"en:Descent of the Ganges (Mahabalipuram)"}}},{"type":"Feature","geometry":{"type":"Point","coordinates":[80.1922234,12.6180857]},"properties":{"layer":"heritage","osm_type":"node","osm_id":353978532,"name":"Varaha Mandapam / Cave","tags":{"historic":"ruins","name":"Varaha Mandapam / Cave","name:ta":"\u0bae\u0bbe\u0bae\u0bb2\u0bcd\u0bb2\u0baa\u0bc1\u0bb0\u0bae\u0bcd \u0bb5\u0bb0\u0bbe\u0b95 \u0bae\u0ba3\u0bcd\u0b9f\u0baa\u0bae\u0bcd","tourism":"attraction","wikidata":"Q7915405","wikipedia":"en:Varaha Cave Temple"}}},{"type":"Feature","geometry":{"type":"Point","coordinates":[80.1915388,12.6152265]},"properties":{"layer":"heritage","osm_type":"node","osm_id":353978541,"name":"Mahishamadhini Cave","tags":{"historic":"ruins","name":"Mahishamadhini Cave","name:ta":"\u0bae\u0b95\u0bbf\u0b9f\u0bbe\u0b9a\u0bc1\u0bb0\u0bae\u0bb0\u0bcd\u0ba4\u0bcd\u0ba4\u0bbf\u0ba9\u0bbf \u0bae\u0ba3\u0bcd\u0b9f\u0baa\u0bae\u0bcd","tourism":"attraction","wikidata":"Q24738391","wikipedia":"en:Mahishasuramardini Mandapa"}}},{"type":"Feature","geometry":{"type":"Point","coordinates":[80.2474892,13.0491047]},"properties":{"layer":"heritage","osm_type":"node","osm_id":366498874,"name":"GK Moopanar Memorial","tags":{"historic":"memorial","name":"GK Moopanar Memorial"}}},{"type":"Feature","geometry":{"type":"Point","coordinates":[80.2179687,13.0751519]},"properties":{"layer":"heritage","osm_type":"node","osm_id":388125720,"name":"Anna Nagar Arch","tags":{"historic":"memorial","name":"Anna Nagar Arch","wikidata":"Q98769104"}}},{"type":"Feature","geometry":{"type":"Point","coordinates":[80.2421897,13.0299336]},"properties":{"layer":"heritage","osm_type":"node","osm_id":389019559,"name":"Nandanam Arch","tags":{"historic":"memorial","memorial":"sculpture","name":"Nandanam Arch"}}},{"type":"Feature","geometry":{"type":"Point","coordinates":[76.6788918,11.5534648]},"properties":{"layer":"heritage","osm_type":"node","osm_id":398968978,"name":"Death of King","tags":{"historic":"wayside_cross","name":"Death of King"}}},{"type":"Feature","geometry":{"type":"Point","coordinates":[76.6872537,11.5688084]},"properties":{"layer":"heritage","osm_type":"node","osm_id":398969025,"name":"Temple","tags":{"historic":"ruins","name":"Temple"}}},{"type":"Feature","geometry":{"type":"Point","coordinates":[76.7017969,11.5209572]},"properties":{"layer":"heritage","osm_type":"node","osm_id":398985432,"name":"little Hindu Temple","tags":{"historic":"wayside_cross","name":"little Hindu Temple"}}},{"type":"Feature","geometry":{"type":"Point","coordinates":[80.1414056,12.9487041]},"properties":{"layer":"heritage","osm_type":"node","osm_id":582775241,"name":"Rajam Statue","tags":{"historic":"memorial","name":"Rajam Statue"}}},{"type":"Feature","geometry":{"type":"Point","coordinates":[79.7033347,12.8297761]},"properties":{"layer":"heritage","osm_type":"node","osm_id":1152517547,"name":null,"tags":{"crossing":"traffic_signals","highway":"traffic_signals","historic":"monument"}}},{"type":"Feature","geometry":{"type":"Point","coordinates":[76.9958494,10.376979]},"properties":{"layer":"heritage","osm_type":"node","osm_id":1154865375,"name":"C. A. Carver Marsh Memorial","tags":{"historic":"memorial","name":"C. A. Carver Marsh Memorial"}}},{"type":"Feature","geometry":{"type":"Point","coordinates":[80.2126953,13.0416536]},"properties":{"layer":"heritage","osm_type":"node","osm_id":1282103256,"name":null,"tags":{"historic":"monument"}}},{"type":"Feature","geometry":{"type":"Point","coordinates":[78.7514866,10.2475835]},"properties":{"layer":"heritage","osm_type":"node","osm_id":1669711997,"name":"Thirumayam Fort","tags":{"castle_type":"fortress","historic":"castle","name":"Thirumayam Fort","name:ml":"\u0d24\u0d3f\u0d30\u0d41\u0d2e\u0d2f\u0d02 \u0d2e\u0d32\u0d15\u0d4d\u0d15\u0d4b\u0d1f\u0d4d\u0d1f","name:ta":"\u0ba4\u0bbf\u0bb0\u0bc1\u0bae\u0baf\u0bae\u0bcd \u0bae\u0bb2\u0bc8\u0b95\u0bcd\u0b95\u0bcb\u0b9f\u0bcd\u0b9f\u0bc8","wikidata":"Q7785352","wikimedia_commons":"Category:Thirumayam Fort","wikipedia":"en:Thirumayam Fort"}}},{"type":"Feature","geometry":{"type":"Point","coordinates":[79.206205,11.9771786]},"properties":{"layer":"heritage","osm_type":"node","osm_id":1760720224,"name":"Raghothama Swami Brindhavan","tags":{"historic":"memorial","name":"Raghothama Swami Brindhavan"}}},{"type":"Feature","geometry":{"type":"Point","coordinates":[78.7841317,9.2306575]},"properties":{"layer":"heritage","osm_type":"node","osm_id":1769185783,"name":null,"tags":{"historic":"battlefield"}}},{"type":"Feature","geometry":{"type":"Point","coordinates":[80.2341705,13.0090832]},"properties":{"layer":"heritage","osm_type":"node","osm_id":1962285673,"name":"Thiruvalluvar Statue","tags":{"historic":"memorial","memorial":"statue","name":"Thiruvalluvar Statue"}}},{"type":"Feature","geometry":{"type":"Point","coordinates":[76.7353419,11.3966893]},"properties":{"layer":"heritage","osm_type":"node","osm_id":2153183974,"name":null,"tags":{"historic":"wayside_shrine","name:de":"Anbetungs stelle unter Laub Dach"}}},{"type":"Feature","geometry":{"type":"Point","coordinates":[79.3993434,12.2495903]},"properties":{"layer":"heritage","osm_type":"node","osm_id":2154074908,"name":"Gingee Fort: Rajagiri Fort","tags":{"historic":"castle","name":"Gingee Fort: Rajagiri Fort","wikidata":"Q3536493","wikimedia_commons":"Category:Gingee Fort","wikipedia":"en:Gingee Fort"}}},{"type":"Feature","geometry":{"type":"Point","coordinates":[80.2104405,12.6591317]},"properties":{"layer":"heritage","osm_type":"node","osm_id":2154131503,"name":null,"tags":{"historic":"archaeological_site"}}},{"type":"Feature","geometry":{"type":"Point","coordinates":[77.7498748,12.6611316]},"properties":{"layer":"heritage","osm_type":"node","osm_id":2390631750,"name":null,"tags":{"historic":"monument"}}},{"type":"Feature","geometry":{"type":"Point","coordinates":[76.7913645,11.363742]},"properties":{"layer":"heritage","osm_type":"node","osm_id":2564378891,"name":"War Memorial","tags":{"historic":"memorial","name":"War Memorial"}}},{"type":"Feature","geometry":{"type":"Point","coordinates":[77.4318965,8.1917769]},"properties":{"layer":"heritage","osm_type":"node","osm_id":2591630382,"name":"Dr MGR Statue","tags":{"historic":"memorial","name":"Dr MGR Statue"}}},{"type":"Feature","geometry":{"type":"Point","coordinates":[79.7661969,11.4920938]},"properties":{"layer":"heritage","osm_type":"node","osm_id":3151560419,"name":"Hyder Ali's Historic War Location","tags":{"historic":"yes","name":"Hyder Ali's Historic War Location"}}},{"type":"Feature","geometry":{"type":"Point","coordinates":[76.935892,10.9369511]},"properties":{"layer":"heritage","osm_type":"node","osm_id":3302175911,"name":"Abandoned House","tags":{"historic":"ruins","name":"Abandoned House"}}},{"type":"Feature","geometry":{"type":"Point","coordinates":[76.9210582,10.9366041]},"properties":{"layer":"heritage","osm_type":"node","osm_id":3302181954,"name":"Abandoned House","tags":{"historic":"ruins","name":"Abandoned House"}}},{"type":"Feature","geometry":{"type":"Point","coordinates":[76.9216693,10.9371202]},"properties":{"layer":"heritage","osm_type":"node","osm_id":3302183143,"name":"Abandoned House","tags":{"historic":"ruins","name":"Abandoned House"}}},{"type":"Feature","geometry":{"type":"Point","coordinates":[76.9204834,10.9211595]},"properties":{"layer":"heritage","osm_type":"node","osm_id":3302241361,"name":"Abandoned House","tags":{"historic":"ruins","name":"Abandoned House"}}},{"type":"Feature","geometry":{"type":"Point","coordinates":[76.9202609,10.9191124]},"properties":{"layer":"heritage","osm_type":"node","osm_id":3304645320,"name":"Abandoned House","tags":{"historic":"ruins","name":"Abandoned House"}}},{"type":"Feature","geometry":{"type":"Point","coordinates":[77.4917867,10.2299031]},"properties":{"layer":"heritage","osm_type":"node","osm_id":3447500693,"name":"Ashoka Pillar","tags":{"historic":"monument","name":"Ashoka Pillar"}}},{"type":"Feature","geometry":{"type":"Point","coordinates":[78.8199818,10.8331021]},"properties":{"layer":"heritage","osm_type":"node","osm_id":3688301041,"name":"Karikal Chozhan Mandapam","tags":{"historic":"memorial","name":"Karikal Chozhan Mandapam"}}},{"type":"Feature","geometry":{"type":"Point","coordinates":[76.8733616,11.4251793]},"properties":{"layer":"heritage","osm_type":"node","osm_id":3695165434,"name":"M. G. Ramachandran Statue","tags":{"historic":"monument","name":"M. G. Ramachandran Statue"}}},{"type":"Feature","geometry":{"type":"Point","coordinates":[78.8209267,10.7717235]},"properties":{"layer":"heritage","osm_type":"node","osm_id":3708840803,"name":"Mary","tags":{"historic":"wayside_shrine","name":"Mary"}}},{"type":"Feature","geometry":{"type":"Point","coordinates":[78.8195717,10.7765694]},"properties":{"layer":"heritage","osm_type":"node","osm_id":3708840935,"name":null,"tags":{"historic":"wayside_shrine","religion":"christian"}}},{"type":"Feature","geometry":{"type":"Point","coordinates":[78.1883333,9.8638889]},"properties":{"layer":"heritage","osm_type":"node","osm_id":3720959173,"name":"Keezhadi","tags":{"historic":"archaeological_site","name":"Keezhadi","name:en":"Keeladi","postal_code":"630611","wikidata":"Q6382732","wikimedia_commons":"Category:Keezhadi","wikipedia":"en:Keezhadi"}}},{"type":"Feature","geometry":{"type":"Point","coordinates":[79.8518709,11.0270198]},"properties":{"layer":"heritage","osm_type":"node","osm_id":3819750016,"name":"Denmark Bastion","tags":{"historic":"fort","name":"Denmark Bastion","ruins":"yes"}}},{"type":"Feature","geometry":{"type":"Point","coordinates":[79.8549391,11.0258141]},"properties":{"layer":"heritage","osm_type":"node","osm_id":3819750017,"name":"Ziegenbalg Statue","tags":{"historic":"memorial","name":"Ziegenbalg Statue"}}},{"type":"Feature","geometry":{"type":"Point","coordinates":[80.2780141,13.0335585]},"properties":{"layer":"heritage","osm_type":"node","osm_id":3830286330,"name":"Tomb of St. Thomas","tags":{"access":"yes","historic":"tomb","name":"Tomb of St. Thomas","name:ar":"\u0642\u0628\u0631 \u0627\u0644\u0642\u062f\u064a\u0633 \u062a\u0648\u0645\u0627 \u0627\u0644\u0631\u0633\u0648\u0644","name:es":"Tumba de Santo Tom\u00e1s Ap\u00f3stol","name:fr":"Tombe de St Thomas l'Ap\u00f4tre","name:it":"Tomba di San Tommaso Apostolo","name:ml":"\u0d35\u0d3f\u0d36\u0d41\u0d26\u0d4d\u0d27 \u0d2e\u0d3e\u0d7c\u0d24\u0d4d\u0d24\u0d4b\u0d2e\u0d4d\u0d2e\u0d3e \u0d36\u0d4d\u0d32\u0d40\u0d39\u0d2f\u0d41\u0d1f\u0d46 \u0d15\u0d32\u0d4d\u0d32\u0d31","name:pt":"T\u00famulo de S\u00e3o Tom\u00e9 Apost\u00f3lo","name:ta":"\u0baa\u0bc1\u0ba9\u0bbf\u0ba4 \u0ba4\u0bbe\u0bae\u0bb8\u0bbf\u0ba9\u0bcd \u0b95\u0bb2\u0bcd\u0bb2\u0bb1\u0bc8","name:zh":"\u5723\u6258\u9a6c\u65af\u4f7f\u5f92\u5893"}}},{"type":"Feature","geometry":{"type":"Point","coordinates":[79.8563281,11.0254156]},"properties":{"layer":"heritage","osm_type":"node","osm_id":3830709564,"name":"200 years of mission","tags":{"historic":"memorial","name":"200 years of mission"}}},{"type":"Feature","geometry":{"type":"Point","coordinates":[80.2763155,13.0539906]},"properties":{"layer":"heritage","osm_type":"node","osm_id":3954647646,"name":"Stone inscrptions","tags":{"historic":"yes","name":"Stone inscrptions"}}},{"type":"Feature","geometry":{"type":"Point","coordinates":[80.2763644,13.054043]},"properties":{"layer":"heritage","osm_type":"node","osm_id":3954647647,"name":"Stone inscrptions","tags":{"historic":"yes","name":"Stone inscrptions"}}},{"type":"Feature","geometry":{"type":"Point","coordinates":[79.6338998,10.7786649]},"properties":{"layer":"heritage","osm_type":"node","osm_id":3972810391,"name":"St. Thyagaraja's birthplace","tags":{"historic":"monument","name":"St. Thyagaraja's birthplace"}}},{"type":"Feature","geometry":{"type":"Point","coordinates":[79.6326682,10.7786125]},"properties":{"layer":"heritage","osm_type":"node","osm_id":3972810520,"name":"St. Muthuswami Dikshitar's birthplace","tags":{"historic":"monument","name":"St. Muthuswami Dikshitar's birthplace"}}},{"type":"Feature","geometry":{"type":"Point","coordinates":[78.7248312,10.4548539]},"properties":{"layer":"heritage","osm_type":"node","osm_id":4283061863,"name":"Sittanavasal Cave","tags":{"historic":"archaeological_site","name":"Sittanavasal Cave","name:ta":"\u0b9a\u0bbf\u0ba4\u0bcd\u0ba4\u0ba9\u0bcd\u0ba9\u0bb5\u0bbe\u0b9a\u0bb2\u0bcd \u0b95\u0bc1\u0b95\u0bc8","natural":"cave_entrance","wikidata":"Q7532018","wikimedia_commons":"Category:Sittanavasal Cave","wikipedia":"en:Sittanavasal Cave"}}},{"type":"Feature","geometry":{"type":"Point","coordinates":[78.1279485,11.6757518]},"properties":{"layer":"heritage","osm_type":"node","osm_id":4299433690,"name":"AVR Roundabout ","tags":{"historic":"monument","name":"AVR Roundabout "}}},{"type":"Feature","geometry":{"type":"Point","coordinates":[78.1244306,11.667467]},"properties":{"layer":"heritage","osm_type":"node","osm_id":4302953996,"name":"ThiruvaGoundanur Roundabout ","tags":{"historic":"monument","name":"ThiruvaGoundanur Roundabout "}}},{"type":"Feature","geometry":{"type":"Point","coordinates":[78.189469,11.6602549]},"properties":{"layer":"heritage","osm_type":"node","osm_id":4305372689,"name":"Military Road Roundabout ","tags":{"historic":"monument","name":"Military Road Roundabout "}}},{"type":"Feature","geometry":{"type":"Point","coordinates":[80.1855096,13.1150281]},"properties":{"layer":"heritage","osm_type":"node","osm_id":4306147718,"name":null,"tags":{"historic":"boundary_stone"}}},{"type":"Feature","geometry":{"type":"Point","coordinates":[80.1832118,13.0260704]},"properties":{"layer":"heritage","osm_type":"node","osm_id":4411851896,"name":null,"tags":{"historic":"monument","name:en":"annai therasa idol"}}},{"type":"Feature","geometry":{"type":"Point","coordinates":[78.2518272,9.9031979]},"properties":{"layer":"heritage","osm_type":"node","osm_id":4439102110,"name":"Asthagrisvara temple","tags":{"amenity":"place_of_worship","historic":"yes","name":"Asthagrisvara temple","religion":"hindu"}}},{"type":"Feature","geometry":{"type":"Point","coordinates":[78.186756,9.9633692]},"properties":{"layer":"heritage","osm_type":"node","osm_id":4439102111,"name":"Jain sculptures & Jain Monks rock shelter","tags":{"archaeological_site":"petroglyph","historic":"archaeological_site","name":"Jain sculptures & Jain Monks rock shelter"}}},{"type":"Feature","geometry":{"type":"Point","coordinates":[78.1888581,9.9659432]},"properties":{"layer":"heritage","osm_type":"node","osm_id":4439102112,"name":"Laden Temple","tags":{"amenity":"place_of_worship","historic":"yes","name":"Laden Temple","natural":"cave_entrance","religion":"hindu","url":"http://www.tnarch.gov.in/cons/temple/temple29.htm"}}},{"type":"Feature","geometry":{"type":"Point","coordinates":[78.2535974,9.9030661]},"properties":{"layer":"heritage","osm_type":"node","osm_id":4439102114,"name":"Subramaniam temple","tags":{"amenity":"place_of_worship","historic":"yes","name":"Subramaniam temple","religion":"hindu"}}},{"type":"Feature","geometry":{"type":"Point","coordinates":[78.2541325,9.9038237]},"properties":{"layer":"heritage","osm_type":"node","osm_id":4439102115,"name":"Udayagirisvarar Temple","tags":{"amenity":"place_of_worship","historic":"yes","name":"Udayagirisvarar Temple","religion":"hindu"}}},{"type":"Feature","geometry":{"type":"Point","coordinates":[76.7339863,11.3973591]},"properties":{"layer":"heritage","osm_type":"node","osm_id":4446993691,"name":null,"tags":{"historic":"memorial","name:de":"Jon (Snoop Dog)","name:en":"Jon (Snoop Dog)"}}},{"type":"Feature","geometry":{"type":"Point","coordinates":[79.0610014,12.2392901]},"properties":{"layer":"heritage","osm_type":"node","osm_id":4522411389,"name":null,"tags":{"historic":"monument","name:en":"Shiva cave"}}},{"type":"Feature","geometry":{"type":"Point","coordinates":[80.2378269,13.1122709]},"properties":{"layer":"heritage","osm_type":"node","osm_id":4623137089,"name":"\u0b95\u0bbe\u0ba8\u0bcd\u0ba4\u0bbf \u0b9a\u0bbf\u0bb2\u0bc8","tags":{"historic":"monument","name":"\u0b95\u0bbe\u0ba8\u0bcd\u0ba4\u0bbf \u0b9a\u0bbf\u0bb2\u0bc8","name:en":"Gandhi Statue"}}},{"type":"Feature","geometry":{"type":"Point","coordinates":[79.415667,9.1793795]},"properties":{"layer":"heritage","osm_type":"node","osm_id":4692047333,"name":"Dhanushkodi","tags":{"abandoned:railway":"station","disused:building":"train_station","end_date":"1964-12-23","historic":"ruins","name":"Dhanushkodi","source":"bing","wikidata":"Q24088770","wikipedia":"en:Dhanushkodi railway station"}}},{"type":"Feature","geometry":{"type":"Point","coordinates":[80.2912521,13.1078316]},"properties":{"layer":"heritage","osm_type":"node","osm_id":4788407923,"name":null,"tags":{"historic":"monument","name:en":"Singaravelar Memorial House"}}},{"type":"Feature","geometry":{"type":"Point","coordinates":[80.2564738,13.0931657]},"properties":{"layer":"heritage","osm_type":"node","osm_id":4792615751,"name":"Kosapet 5 lights","tags":{"historic":"monument","name":"Kosapet 5 lights"}}},{"type":"Feature","geometry":{"type":"Point","coordinates":[80.2358745,13.0426975]},"properties":{"layer":"heritage","osm_type":"node","osm_id":4794732210,"name":"Kannadasan","tags":{"historic":"memorial","memorial":"statue","name":"Kannadasan","name:ta":"\u0b95\u0ba3\u0bcd\u0ba3\u0ba4\u0bbe\u0b9a\u0ba9\u0bcd \u0b9a\u0bbf\u0bb2\u0bc8"}}},{"type":"Feature","geometry":{"type":"Point","coordinates":[78.7429315,10.6578713]},"properties":{"layer":"heritage","osm_type":"node","osm_id":4801784602,"name":"anna statue","tags":{"historic":"monument","name":"anna statue"}}},{"type":"Feature","geometry":{"type":"Point","coordinates":[77.2919153,8.8021195]},"properties":{"layer":"heritage","osm_type":"node","osm_id":4951079119,"name":null,"tags":{"historic":"wayside_shrine","religion":"muslim"}}},{"type":"Feature","geometry":{"type":"Point","coordinates":[80.2271011,12.800185]},"properties":{"layer":"heritage","osm_type":"node","osm_id":5091751922,"name":"Nandi flame tree planted by A.P.J Abdul Kalam","tags":{"historic":"monument","name":"Nandi flame tree planted by A.P.J Abdul Kalam"}}},{"type":"Feature","geometry":{"type":"Point","coordinates":[80.1907486,12.6072495]},"properties":{"layer":"heritage","osm_type":"node","osm_id":5096042202,"name":"V\u0101lm\u012bkan\u0101thar","tags":{"amenity":"place_of_worship","historic":"heritage","name":"V\u0101lm\u012bkan\u0101thar","religion":"hindu","source":"bing","source:name":"geonames.nga.mil"}}},{"type":"Feature","geometry":{"type":"Point","coordinates":[80.1948497,12.6271656]},"properties":{"layer":"heritage","osm_type":"node","osm_id":5096205107,"name":"Mukunda Nayanar","tags":{"amenity":"place_of_worship","historic":"ruins","name":"Mukunda Nayanar","religion":"hindu","source":"bing;knowledge"}}},{"type":"Feature","geometry":{"type":"Point","coordinates":[79.4977273,11.9366502]},"properties":{"layer":"heritage","osm_type":"node","osm_id":5234891441,"name":"MGR statue","tags":{"historic":"monument","name":"MGR statue"}}},{"type":"Feature","geometry":{"type":"Point","coordinates":[76.8009326,11.3551884]},"properties":{"layer":"heritage","osm_type":"node","osm_id":5327496042,"name":"Louis Pasteur Statue","tags":{"historic":"memorial","memorial":"statue","name":"Louis Pasteur Statue"}}},{"type":"Feature","geometry":{"type":"Point","coordinates":[77.2488762,8.1738327]},"properties":{"layer":"heritage","osm_type":"node","osm_id":5329213908,"name":"The Colachel Pillar","tags":{"historic":"memorial","name":"The Colachel Pillar","wikimedia_commons":"File:Victory_Pillar_Colachal.jpg"}}},{"type":"Feature","geometry":{"type":"Point","coordinates":[79.1309733,12.9237905]},"properties":{"layer":"heritage","osm_type":"node","osm_id":5367637543,"name":"Vellore Sepoy Mutiny Memorial Pillar","tags":{"historic":"memorial","leisure":"garden","memorial":"sculpture","name":"Vellore Sepoy Mutiny Memorial Pillar","subject:wikidata":"Q1926145","subject:wikipedia":"Vellore_Mutiny","wikimedia_commons":"File:\u09e7\u09ee\u09e6\u09ec \u09b8\u09be\u09b2\u09c7\u09b0 \u09ad\u09c7\u09b2\u09cb\u09b0 \u09ac\u09bf\u09a6\u09cd\u09b0\u09cb\u09b9\u09c7\u09b0 \u09b8\u09cd\u09a4\u09ae\u09cd\u09ad.jpg"}}},{"type":"Feature","geometry":{"type":"Point","coordinates":[80.1922604,12.6151119]},"properties":{"layer":"heritage","osm_type":"node","osm_id":5511537906,"name":"Arunjas Penance Model","tags":{"historic":"ruins","name":"Arunjas Penance Model","religion":"hindu","tourism":"attraction"}}},{"type":"Feature","geometry":{"type":"Point","coordinates":[80.1916985,12.6147635]},"properties":{"layer":"heritage","osm_type":"node","osm_id":5517871828,"name":"Dharmaraja Mandapam","tags":{"historic":"ruins","name":"Dharmaraja Mandapam","religion":"hindu","tourism":"attraction"}}},{"type":"Feature","geometry":{"type":"Point","coordinates":[80.1926528,12.6197938]},"properties":{"layer":"heritage","osm_type":"node","osm_id":5517872608,"name":"Tirmurthy Cave","tags":{"historic":"ruins","name":"Tirmurthy Cave","religion":"hindu","tourism":"attraction"}}},{"type":"Feature","geometry":{"type":"Point","coordinates":[80.1922279,12.619747]},"properties":{"layer":"heritage","osm_type":"node","osm_id":5517872748,"name":"Kodikal Mandapam","tags":{"historic":"ruins","name":"Kodikal Mandapam","religion":"hindu","tourism":"attraction"}}},{"type":"Feature","geometry":{"type":"Point","coordinates":[80.1913387,12.6185549]},"properties":{"layer":"heritage","osm_type":"node","osm_id":5517872769,"name":"Five Celled Rock Cave","tags":{"historic":"ruins","name":"Five Celled Rock Cave","religion":"hindu","tourism":"attraction"}}},{"type":"Feature","geometry":{"type":"Point","coordinates":[80.1913696,12.6186059]},"properties":{"layer":"heritage","osm_type":"node","osm_id":5517874190,"name":"Keneri Mandapam","tags":{"historic":"ruins","name":"Keneri Mandapam","religion":"hindu","tourism":"attraction"}}},{"type":"Feature","geometry":{"type":"Point","coordinates":[80.2079346,13.1055919]},"properties":{"layer":"heritage","osm_type":"node","osm_id":5625813433,"name":"Ambedkar Statue","tags":{"addr:street":"South Mada Street, Villivakkam, Chennai","historic":"monument","name":"Ambedkar Statue"}}},{"type":"Feature","geometry":{"type":"Point","coordinates":[80.1926301,12.6176455]},"properties":{"layer":"heritage","osm_type":"node","osm_id":5679713257,"name":"Panchapandava Mandapam","tags":{"historic":"ruins","name":"Panchapandava Mandapam","name:ta":"\u0baa\u0b9e\u0bcd\u0b9a\u0baa\u0bbe\u0ba3\u0bcd\u0b9f\u0bb5 \u0bae\u0ba3\u0bcd\u0b9f\u0baa\u0bae\u0bcd","tourism":"attraction"}}},{"type":"Feature","geometry":{"type":"Point","coordinates":[80.1916726,12.614924]},"properties":{"layer":"heritage","osm_type":"node","osm_id":5685948849,"name":"Olakkannesvara Temple","tags":{"historic":"ruins","name":"Olakkannesvara Temple","tourism":"attraction"}}},{"type":"Feature","geometry":{"type":"Point","coordinates":[80.2853155,13.0642744]},"properties":{"layer":"heritage","osm_type":"node","osm_id":5694124024,"name":"\u0b8e\u0bae\u0bcd \u0b9c\u0bbf \u0b86\u0bb0\u0bcd \u0ba8\u0bbf\u0ba9\u0bc8\u0bb5\u0bc1\u0baa\u0bcd\u0baa\u0bc2\u0b99\u0bcd\u0b95\u0bbe","tags":{"historic":"memorial","name":"\u0b8e\u0bae\u0bcd \u0b9c\u0bbf \u0b86\u0bb0\u0bcd \u0ba8\u0bbf\u0ba9\u0bc8\u0bb5\u0bc1\u0baa\u0bcd\u0baa\u0bc2\u0b99\u0bcd\u0b95\u0bbe","name:en":"MGR Memorial","name:ml":"\u0d0e\u0d02\u0d1c\u0d3f\u0d06\u0d7c \u0d38\u0d4d\u0d2e\u0d3e\u0d30\u0d15\u0d02","name:ta":"\u0b8e\u0bae\u0bcd \u0b9c\u0bbf \u0b86\u0bb0\u0bcd \u0ba8\u0bbf\u0ba9\u0bc8\u0bb5\u0bc1\u0baa\u0bcd\u0baa\u0bc2\u0b99\u0bcd\u0b95\u0bbe","wikidata":"Q6715769","wikimedia_commons":"Category:MGR Memorial","wikipedia":"en:MGR Memorial"}}},{"type":"Feature","geometry":{"type":"Point","coordinates":[80.2603835,13.0727126]},"properties":{"layer":"heritage","osm_type":"node","osm_id":5744866578,"name":null,"tags":{"building":"wayside_shrine","historic":"wayside_shrine"}}},{"type":"Feature","geometry":{"type":"Point","coordinates":[80.2855855,13.065471]},"properties":{"layer":"heritage","osm_type":"node","osm_id":5849458088,"name":"Perarignar Anna Memorial","tags":{"historic":"memorial","int_name":"Annadurai Memorial","name":"Perarignar Anna Memorial","name:hi":"\u092a\u0947\u0930\u0930\u093f\u091e\u0930 \u0905\u0923\u094d\u0923\u093e \u0938\u094d\u092e\u093e\u0930\u0915","name:ml":"\u0d2a\u0d47\u0d30\u0d31\u0d3f\u0d1e\u0d4d\u0d1c\u0d7c \u0d05\u0d23\u0d4d\u0d23\u0d3e \u0d38\u0d4d\u0d2e\u0d3e\u0d30\u0d15\u0d02","name:ta":"\u0baa\u0bc7\u0bb0\u0bb1\u0bbf\u0b9e\u0bb0\u0bcd \u0b85\u0ba3\u0bcd\u0ba3\u0bbe \u0ba8\u0bbf\u0ba9\u0bc8\u0bb5\u0bc1\u0baa\u0bcd\u0baa\u0bc2\u0b99\u0bcd\u0b95\u0bbe","wikidata":"Q4767341","wikimedia_commons":"Category:Anna Memorial","wikipedia":"en:Anna Memorial"}}},{"type":"Feature","geometry":{"type":"Point","coordinates":[77.5499593,8.078811]},"properties":{"layer":"heritage","osm_type":"node","osm_id":5851464591,"name":"Gandhi Mandapam","tags":{"historic":"memorial","name":"Gandhi Mandapam","name:en":"Gandhi Mandapam","name:hi":"\u0917\u093e\u0901\u0927\u0940 \u0938\u094d\u092e\u093e\u0930\u0915","name:ml":"\u0d17\u0d3e\u0d28\u0d4d\u0d27\u0d3f \u0d2e\u0d23\u0d4d\u0d21\u0d2a\u0d02","name:mr":"\u0917\u093e\u0902\u0927\u0940 \u0938\u094d\u092e\u093e\u0930\u0915","name:ta":"\u0b95\u0bbe\u0ba8\u0bcd\u0ba4\u0bbf \u0bae\u0ba3\u0bcd\u0b9f\u0baa\u0bae\u0bcd","wikimedia_commons":"File:Kanyakumari_Monumento_a_Gandhi.JPG"}}},{"type":"Feature","geometry":{"type":"Point","coordinates":[79.0565344,12.2242329]},"properties":{"layer":"heritage","osm_type":"node","osm_id":5855725317,"name":"Cow Lakshmi","tags":{"cemetery":"grave","historic":"tomb","name":"Cow Lakshmi"}}},{"type":"Feature","geometry":{"type":"Point","coordinates":[79.0565176,12.224229]},"properties":{"layer":"heritage","osm_type":"node","osm_id":5855725318,"name":"Jackie The Dog","tags":{"cemetery":"grave","historic":"tomb","name":"Jackie The Dog"}}},{"type":"Feature","geometry":{"type":"Point","coordinates":[79.0565084,12.2242272]},"properties":{"layer":"heritage","osm_type":"node","osm_id":5855725319,"name":"The Blessed Crow","tags":{"cemetery":"grave","historic":"tomb","name":"The Blessed Crow"}}},{"type":"Feature","geometry":{"type":"Point","coordinates":[79.0564955,12.2242272]},"properties":{"layer":"heritage","osm_type":"node","osm_id":5855725320,"name":"Deer","tags":{"cemetery":"grave","historic":"tomb","name":"Deer"}}},{"type":"Feature","geometry":{"type":"Point","coordinates":[79.5548908,11.3017795]},"properties":{"layer":"heritage","osm_type":"node","osm_id":6009508785,"name":null,"tags":{"historic":"memorial","name:en":"new mosque"}}},{"type":"Feature","geometry":{"type":"Point","coordinates":[76.7360027,10.9779753]},"properties":{"layer":"heritage","osm_type":"node","osm_id":6027054256,"name":"Nandi","tags":{"historic":"monument","name":"Nandi"}}},{"type":"Feature","geometry":{"type":"Point","coordinates":[77.2481394,10.7444214]},"properties":{"layer":"heritage","osm_type":"node","osm_id":6031379765,"name":"Kariya kaliamman temple","tags":{"historic":"wayside_shrine","name":"Kariya kaliamman temple","religion":"hindu"}}},{"type":"Feature","geometry":{"type":"Point","coordinates":[78.8252767,10.6654898]},"properties":{"layer":"heritage","osm_type":"node","osm_id":6126092460,"name":"Jain Monument","tags":{"historic":"ruins","name":"Jain Monument","operator":"Madurai Jain Heritage center"}}},{"type":"Feature","geometry":{"type":"Point","coordinates":[78.8166678,10.6627858]},"properties":{"layer":"heritage","osm_type":"node","osm_id":6126093129,"name":"Jain temple ruins","tags":{"description":"1st RajaRajaChola period sculpture","historic":"ruins","name":"Jain temple ruins","operator":"Madurai Jain Heritage center"}}},{"type":"Feature","geometry":{"type":"Point","coordinates":[80.1259897,12.9126722]},"properties":{"layer":"heritage","osm_type":"node","osm_id":6127994281,"name":null,"tags":{"historic":"memorial","memorial":"vehicle"}}},{"type":"Feature","geometry":{"type":"Point","coordinates":[80.1161113,12.9050385]},"properties":{"layer":"heritage","osm_type":"node","osm_id":6128068878,"name":null,"tags":{"historic":"memorial","memorial":"vehicle"}}},{"type":"Feature","geometry":{"type":"Point","coordinates":[78.8986582,10.2016191]},"properties":{"layer":"heritage","osm_type":"node","osm_id":6227534406,"name":null,"tags":{"historic":"ruins"}}},{"type":"Feature","geometry":{"type":"Point","coordinates":[80.2496348,13.0490327]},"properties":{"layer":"heritage","osm_type":"node","osm_id":6356480609,"name":"Kamaraj Memorial","tags":{"historic":"memorial","name":"Kamaraj Memorial"}}},{"type":"Feature","geometry":{"type":"Point","coordinates":[78.252595,12.53581]},"properties":{"layer":"heritage","osm_type":"node","osm_id":6367890928,"name":null,"tags":{"historic":"castle","name:en":"Sri Devaraj Marriage Hall"}}},{"type":"Feature","geometry":{"type":"Point","coordinates":[78.110841,9.9190974]},"properties":{"layer":"heritage","osm_type":"node","osm_id":6633362829,"name":null,"tags":{"amenity":"place_of_worship","historic":"wayside_shrine","religion":"hindu"}}},{"type":"Feature","geometry":{"type":"Point","coordinates":[76.9223992,10.9291448]},"properties":{"layer":"heritage","osm_type":"node","osm_id":6633678279,"name":"SKCT front gate","tags":{"historic":"city_gate","historic:civilization":"Security_check","name":"SKCT front gate"}}},{"type":"Feature","geometry":{"type":"Point","coordinates":[80.2592477,13.0160705]},"properties":{"layer":"heritage","osm_type":"node","osm_id":7016742492,"name":"Sivaji Ganesan Memorial","tags":{"historic":"memorial","name":"Sivaji Ganesan Memorial","name:ta":"\u0b9a\u0bbf\u0bb5\u0bbe\u0b9c\u0bbf \u0b95\u0ba3\u0bc7\u0b9a\u0ba9\u0bcd \u0ba8\u0bbf\u0ba9\u0bc8\u0bb5\u0bbf\u0b9f\u0bae\u0bcd","wikidata":"Q39086241","wikipedia":"en:Sivaji Ganesan Memorial"}}},{"type":"Feature","geometry":{"type":"Point","coordinates":[76.7427674,11.3783456]},"properties":{"layer":"heritage","osm_type":"node","osm_id":7070366031,"name":"Ketti valley panchayat","tags":{"historic":"city_gate","historic:civilization":"badugas","name":"Ketti valley panchayat"}}},{"type":"Feature","geometry":{"type":"Point","coordinates":[77.6329014,8.6970081]},"properties":{"layer":"heritage","osm_type":"node","osm_id":7082031163,"name":"Jai Tamraparni","tags":{"historic":"manor","name":"Jai Tamraparni"}}},{"type":"Feature","geometry":{"type":"Point","coordinates":[77.8799626,12.6859873]},"properties":{"layer":"heritage","osm_type":"node","osm_id":7092269123,"name":"Rajaji House","tags":{"historic":"memorial","name":"Rajaji House"}}},{"type":"Feature","geometry":{"type":"Point","coordinates":[77.731671,11.3396468]},"properties":{"layer":"heritage","osm_type":"node","osm_id":7171213567,"name":"Thanthai Periyar Memorial House \u0ba4\u0ba8\u0bcd\u0ba4\u0bc8 \u0baa\u0bc6\u0bb0\u0bbf\u0baf\u0bbe\u0bb0\u0bcd \u0ba8\u0bbf\u0ba9\u0bc8\u0bb5\u0bc1 \u0b87\u0bb2\u0bcd\u0bb2\u0bae\u0bcd","tags":{"addr:street":"Periyar Street","historic":"memorial","name":"Thanthai Periyar Memorial House \u0ba4\u0ba8\u0bcd\u0ba4\u0bc8 \u0baa\u0bc6\u0bb0\u0bbf\u0baf\u0bbe\u0bb0\u0bcd \u0ba8\u0bbf\u0ba9\u0bc8\u0bb5\u0bc1 \u0b87\u0bb2\u0bcd\u0bb2\u0bae\u0bcd","opening_hours":"Mo-Su 09:00-13:00, 14:00-18:00","phone":"98427 95247"}}},{"type":"Feature","geometry":{"type":"Point","coordinates":[79.7776923,11.9829317]},"properties":{"layer":"heritage","osm_type":"node","osm_id":7184114715,"name":"Uranya","tags":{"historic":"tomb","landuse":"cemetery","name":"Uranya"}}},{"type":"Feature","geometry":{"type":"Point","coordinates":[78.1737879,11.6586468]},"properties":{"layer":"heritage","osm_type":"node","osm_id":7262883185,"name":null,"tags":{"historic":"memorial","name:en":"Nedumaran House"}}},{"type":"Feature","geometry":{"type":"Point","coordinates":[77.5134762,10.2983633]},"properties":{"layer":"heritage","osm_type":"node","osm_id":7372276671,"name":null,"tags":{"archaeological_site":"megalith","historic":"archaeological_site","megalith_type":"dolmen"}}},{"type":"Feature","geometry":{"type":"Point","coordinates":[77.5135539,10.2983679]},"properties":{"layer":"heritage","osm_type":"node","osm_id":7372276672,"name":null,"tags":{"archaeological_site":"megalith","historic":"archaeological_site","megalith_type":"dolmen"}}},{"type":"Feature","geometry":{"type":"Point","coordinates":[77.5303084,10.283675]},"properties":{"layer":"heritage","osm_type":"node","osm_id":7379623436,"name":null,"tags":{"archaeological_site":"megalith","historic":"archaeological_site","megalith_type":"dolmen"}}},{"type":"Feature","geometry":{"type":"Point","coordinates":[77.5303097,10.2837079]},"properties":{"layer":"heritage","osm_type":"node","osm_id":7379623437,"name":null,"tags":{"archaeological_site":"megalith","historic":"archaeological_site","megalith_type":"dolmen"}}},{"type":"Feature","geometry":{"type":"Point","coordinates":[77.6955787,11.1178854]},"properties":{"layer":"heritage","osm_type":"node","osm_id":7440275220,"name":"Theeran Chinnamalai Memorial","tags":{"historic":"memorial","memorial":"memorial","name":"Theeran Chinnamalai Memorial"}}},{"type":"Feature","geometry":{"type":"Point","coordinates":[79.6556698,12.0194274]},"properties":{"layer":"heritage","osm_type":"node","osm_id":7686583985,"name":"National Fossil Wood Park, Tiruvakkarai","tags":{"historic":"monument","name":"National Fossil Wood Park, Tiruvakkarai","wikidata":"Q6972778","wikimedia_commons":"Category:National Fossil Wood Park, Tiruvakkarai","wikipedia":"en:National Fossil Wood Park, Tiruvakkarai"}}},{"type":"Feature","geometry":{"type":"Point","coordinates":[77.8639376,11.4792256]},"properties":{"layer":"heritage","osm_type":"node","osm_id":7689382152,"name":"Sankagiri Fort","tags":{"historic":"fort","name":"Sankagiri Fort","wikidata":"Q471838","wikipedia":"en:Sankagiri Fort"}}},{"type":"Feature","geometry":{"type":"Point","coordinates":[77.7190194,11.3480753]},"properties":{"layer":"heritage","osm_type":"node","osm_id":8106055317,"name":null,"tags":{"historic":"memorial"}}},{"type":"Feature","geometry":{"type":"Point","coordinates":[80.2749968,13.0783235]},"properties":{"layer":"heritage","osm_type":"node","osm_id":8291990083,"name":null,"tags":{"denomination":"catholic","historic":"wayside_cross","religion":"christian"}}},{"type":"Feature","geometry":{"type":"Point","coordinates":[79.7777117,11.9829315]},"properties":{"layer":"heritage","osm_type":"node","osm_id":8482194135,"name":"Madame","tags":{"historic":"tomb","inscription":"Our beloved Madame passed on Dec 1, 2020.\nShe stopped taking food and water after Cyclone Nivar.\n\nThe time has come for us to part\nNo longer will you wag your tail\nWe'll meet again on fairer trails\nYou live forever in our hearts","name":"Madame","tomb":"yes"}}},{"type":"Feature","geometry":{"type":"Point","coordinates":[80.2787726,13.0332048]},"properties":{"layer":"heritage","osm_type":"node","osm_id":8827381920,"name":"St. Thomas Pole","tags":{"historic":"monument","name":"St. Thomas Pole"}}},{"type":"Feature","geometry":{"type":"Point","coordinates":[78.0638878,8.3729093]},"properties":{"layer":"heritage","osm_type":"node","osm_id":8868135768,"name":null,"tags":{"historic":"memorial","memorial":"plaque"}}},{"type":"Feature","geometry":{"type":"Point","coordinates":[77.319677,8.1262176]},"properties":{"layer":"heritage","osm_type":"node","osm_id":9095013893,"name":"Mary Of Health Shrine","tags":{"historic":"wayside_shrine","name":"Mary Of Health Shrine"}}},{"type":"Feature","geometry":{"type":"Point","coordinates":[77.3191133,8.1268124]},"properties":{"layer":"heritage","osm_type":"node","osm_id":9095013894,"name":"St. Antony Shrine, Muttom","tags":{"historic":"wayside_shrine","name":"St. Antony Shrine, Muttom"}}},{"type":"Feature","geometry":{"type":"Point","coordinates":[77.9711658,10.3558157]},"properties":{"layer":"heritage","osm_type":"node","osm_id":9104697809,"name":"Hyder Ali And Tippu Sultan Memorial","tags":{"historic":"memorial","name":"Hyder Ali And Tippu Sultan Memorial","website":"https://memorial.tn.gov.in/360/24-haither-ali-memorial-Dindigul/index.html"}}},{"type":"Feature","geometry":{"type":"Point","coordinates":[80.183337,12.9741318]},"properties":{"layer":"heritage","osm_type":"node","osm_id":9501982816,"name":"Thanthai Periyar Statue","tags":{"historic":"memorial","name":"Thanthai Periyar Statue"}}},{"type":"Feature","geometry":{"type":"Point","coordinates":[79.8616806,10.3592351]},"properties":{"layer":"heritage","osm_type":"node","osm_id":9518327214,"name":"Vedaranyam Satyagraha Memorial","tags":{"historic":"memorial","name":"Vedaranyam Satyagraha Memorial"}}},{"type":"Feature","geometry":{"type":"Point","coordinates":[79.4491322,9.1503827]},"properties":{"layer":"heritage","osm_type":"node","osm_id":9577070883,"name":"\u0b85\u0bb0\u0bbf\u0b9a\u0bcd\u0b9a\u0bb2\u0bcd \u0bae\u0bc1\u0ba9\u0bc8","tags":{"access":"yes","addr:country":"IN","addr:district":"Ramanathapuram","addr:place":"Dhanushkodi / \u0ba4\u0ba9\u0bc1\u0bb7\u0bcd\u0b95\u0bcb\u0b9f\u0bbf","addr:state":"Tamil Nadu","historic":"monument","name":"\u0b85\u0bb0\u0bbf\u0b9a\u0bcd\u0b9a\u0bb2\u0bcd \u0bae\u0bc1\u0ba9\u0bc8","name:en":"Arichal Munai","name:ta":"\u0b85\u0bb0\u0bbf\u0b9a\u0bcd\u0b9a\u0bb2\u0bcd \u0bae\u0bc1\u0ba9\u0bc8","opening_hours":"Mo-Su 08:00-17:00","postal_code":"623526","source":"data.gouv.fr:Minist\u00e8re de l'\u00c9ducation nationale, de la Jeunesse et de la Vie associative - 05/2012"}}},{"type":"Feature","geometry":{"type":"Point","coordinates":[78.099071,9.946033]},"properties":{"layer":"heritage","osm_type":"node","osm_id":9647962096,"name":null,"tags":{"historic":"monument","name:en":"Stone Chariot"}}},{"type":"Feature","geometry":{"type":"Point","coordinates":[78.0986472,9.9056549]},"properties":{"layer":"heritage","osm_type":"node","osm_id":9648122356,"name":null,"tags":{"historic":"monument"}}},{"type":"Feature","geometry":{"type":"Point","coordinates":[80.2841124,13.0678837]},"properties":{"layer":"heritage","osm_type":"node","osm_id":9789561219,"name":"75th Anniversary of Independence Monument","tags":{"historic":"monument","name":"75th Anniversary of Independence Monument"}}},{"type":"Feature","geometry":{"type":"Point","coordinates":[79.3863897,11.8217324]},"properties":{"layer":"heritage","osm_type":"node","osm_id":9813590917,"name":null,"tags":{"historic":"wayside_shrine","religion":"christian","survey:date":"2022-06-08"}}},{"type":"Feature","geometry":{"type":"Point","coordinates":[80.2899079,13.0879678]},"properties":{"layer":"heritage","osm_type":"node","osm_id":9872392779,"name":"Bombardment of Madras Site","tags":{"historic":"memorial","memorial":"plaque","name":"Bombardment of Madras Site"}}},{"type":"Feature","geometry":{"type":"Point","coordinates":[80.2857739,13.06416]},"properties":{"layer":"heritage","osm_type":"node","osm_id":9904715181,"name":"Puratchi Thalaivi Amma Dr. J. Jayalalithaa Memorial","tags":{"historic":"memorial","name":"Puratchi Thalaivi Amma Dr. J. Jayalalithaa Memorial","name:ml":"\u0d2a\u0d41\u0d30\u0d1f\u0d4d\u0d1a\u0d3f \u0d24\u0d32\u0d48\u0d35\u0d3f \u0d05\u0d2e\u0d4d\u0d2e \u0d21\u0d4b. \u0d1c\u0d46. \u0d1c\u0d2f\u0d32\u0d33\u0d3f\u0d24 \u0d38\u0d4d\u0d2e\u0d3e\u0d30\u0d15\u0d02","name:ta":"\u0baa\u0bc1\u0bb0\u0b9f\u0bcd\u0b9a\u0bbf\u0ba4\u0bcd\u0ba4\u0bb2\u0bc8\u0bb5\u0bbf \u0b85\u0bae\u0bcd\u0bae\u0bbe \u0b9f\u0bbe\u0b95\u0bcd\u0b9f\u0bb0\u0bcd \u0b9c\u0bc6.\u0b9c\u0bc6\u0baf\u0bb2\u0bb2\u0bbf\u0ba4\u0bbe \u0ba8\u0bbf\u0ba9\u0bc8\u0bb5\u0bbf\u0b9f\u0bae\u0bcd"}}},{"type":"Feature","geometry":{"type":"Point","coordinates":[77.3289615,10.1511925]},"properties":{"layer":"heritage","osm_type":"node","osm_id":9919110507,"name":"Milestones","tags":{"historic":"milestone","name":"Milestones"}}},{"type":"Feature","geometry":{"type":"Point","coordinates":[80.286895,13.0888431]},"properties":{"layer":"heritage","osm_type":"node","osm_id":9979919328,"name":null,"tags":{"historic":"wayside_shrine","religion":"hindu"}}},{"type":"Feature","geometry":{"type":"Point","coordinates":[80.2729492,13.0820557]},"properties":{"layer":"heritage","osm_type":"node","osm_id":9980931988,"name":"Sir Charles Trevelyan Memorial","tags":{"historic":"memorial","name":"Sir Charles Trevelyan Memorial"}}},{"type":"Feature","geometry":{"type":"Point","coordinates":[80.2899841,13.0889988]},"properties":{"layer":"heritage","osm_type":"node","osm_id":9982798055,"name":"Esplanade Boundary Marker","tags":{"historic":"monument","name":"Esplanade Boundary Marker"}}},{"type":"Feature","geometry":{"type":"Point","coordinates":[80.2796808,13.043153]},"properties":{"layer":"heritage","osm_type":"node","osm_id":9982814778,"name":"State Emblem Monument","tags":{"historic":"monument","name":"State Emblem Monument"}}},{"type":"Feature","geometry":{"type":"Point","coordinates":[80.2791507,13.0422961]},"properties":{"layer":"heritage","osm_type":"node","osm_id":9982814779,"name":null,"tags":{"historic":"monument"}}},{"type":"Feature","geometry":{"type":"Point","coordinates":[80.2860043,13.0785866]},"properties":{"layer":"heritage","osm_type":"node","osm_id":9992734837,"name":"Robert Clive Memorial","tags":{"historic":"memorial","memorial":"plaque","name":"Robert Clive Memorial"}}},{"type":"Feature","geometry":{"type":"Point","coordinates":[80.2317522,12.8353667]},"properties":{"layer":"heritage","osm_type":"node","osm_id":9992935856,"name":null,"tags":{"historic":"monument"}}},{"type":"Feature","geometry":{"type":"Point","coordinates":[77.3916643,8.1491769]},"properties":{"layer":"heritage","osm_type":"node","osm_id":10033772088,"name":null,"tags":{"historic":"monument"}}},{"type":"Feature","geometry":{"type":"Point","coordinates":[80.243172,13.0323338]},"properties":{"layer":"heritage","osm_type":"node","osm_id":10036499280,"name":"Alstom Metropolis","tags":{"historic":"monument","name":"Alstom Metropolis"}}},{"type":"Feature","geometry":{"type":"Point","coordinates":[80.2399804,13.0313624]},"properties":{"layer":"heritage","osm_type":"node","osm_id":10036499486,"name":null,"tags":{"historic":"memorial","memorial":"plaque"}}},{"type":"Feature","geometry":{"type":"Point","coordinates":[80.2399879,13.0313659]},"properties":{"layer":"heritage","osm_type":"node","osm_id":10036499487,"name":null,"tags":{"historic":"memorial","memorial":"plaque"}}},{"type":"Feature","geometry":{"type":"Point","coordinates":[80.2399946,13.0313691]},"properties":{"layer":"heritage","osm_type":"node","osm_id":10036499488,"name":null,"tags":{"historic":"memorial","memorial":"plaque"}}},{"type":"Feature","geometry":{"type":"Point","coordinates":[79.7090346,12.9751864]},"properties":{"layer":"heritage","osm_type":"node","osm_id":10054391217,"name":"Battle of Pollilur Memorial","tags":{"historic":"memorial","memorial":"war_memorial","name":"Battle of Pollilur Memorial","website":"https://madrasmusings.com/Vol%2019%20No%2013/otherstories.html#story2"}}},{"type":"Feature","geometry":{"type":"Point","coordinates":[80.291554,13.0926763]},"properties":{"layer":"heritage","osm_type":"node","osm_id":10102198590,"name":null,"tags":{"historic":"memorial","memorial":"plaque"}}},{"type":"Feature","geometry":{"type":"Point","coordinates":[80.2910557,13.0930639]},"properties":{"layer":"heritage","osm_type":"node","osm_id":10102299125,"name":null,"tags":{"historic":"memorial","memorial":"plaque"}}},{"type":"Feature","geometry":{"type":"Point","coordinates":[80.2940682,13.1002792]},"properties":{"layer":"heritage","osm_type":"node","osm_id":10102405672,"name":null,"tags":{"historic":"wayside_shrine","religion":"hindu"}}},{"type":"Feature","geometry":{"type":"Point","coordinates":[80.2935008,13.0997775]},"properties":{"layer":"heritage","osm_type":"node","osm_id":10102405709,"name":null,"tags":{"historic":"wayside_shrine","religion":"christian"}}},{"type":"Feature","geometry":{"type":"Point","coordinates":[80.2934786,13.0997716]},"properties":{"layer":"heritage","osm_type":"node","osm_id":10102405710,"name":null,"tags":{"historic":"wayside_cross"}}},{"type":"Feature","geometry":{"type":"Point","coordinates":[80.2936619,13.1003342]},"properties":{"layer":"heritage","osm_type":"node","osm_id":10102405729,"name":null,"tags":{"historic":"wayside_shrine","religion":"christian"}}},{"type":"Feature","geometry":{"type":"Point","coordinates":[80.2859238,13.1037531]},"properties":{"layer":"heritage","osm_type":"node","osm_id":10102869416,"name":null,"tags":{"historic":"wayside_shrine","religion":"christian"}}},{"type":"Feature","geometry":{"type":"Point","coordinates":[80.2870359,13.0942095]},"properties":{"layer":"heritage","osm_type":"node","osm_id":10103042470,"name":null,"tags":{"historic":"wayside_shrine","religion":"hindu"}}},{"type":"Feature","geometry":{"type":"Point","coordinates":[80.2871877,13.0928814]},"properties":{"layer":"heritage","osm_type":"node","osm_id":10106243473,"name":null,"tags":{"historic":"wayside_shrine","religion":"hindu"}}},{"type":"Feature","geometry":{"type":"Point","coordinates":[80.2850648,13.0907034]},"properties":{"layer":"heritage","osm_type":"node","osm_id":10106532873,"name":null,"tags":{"historic":"wayside_shrine","religion":"hindu"}}},{"type":"Feature","geometry":{"type":"Point","coordinates":[80.2889544,13.0938042]},"properties":{"layer":"heritage","osm_type":"node","osm_id":10107347092,"name":null,"tags":{"historic":"wayside_shrine","religion":"hindu"}}},{"type":"Feature","geometry":{"type":"Point","coordinates":[80.2896409,13.0934784]},"properties":{"layer":"heritage","osm_type":"node","osm_id":10107655342,"name":null,"tags":{"historic":"wayside_shrine","religion":"hindu"}}},{"type":"Feature","geometry":{"type":"Point","coordinates":[80.2863818,13.0950004]},"properties":{"layer":"heritage","osm_type":"node","osm_id":10115882542,"name":null,"tags":{"historic":"wayside_shrine","religion":"hindu"}}},{"type":"Feature","geometry":{"type":"Point","coordinates":[80.2501704,13.0469821]},"properties":{"layer":"heritage","osm_type":"node","osm_id":10130887522,"name":"JEeva Illam","tags":{"historic":"memorial","name":"JEeva Illam"}}},{"type":"Feature","geometry":{"type":"Point","coordinates":[80.2611954,13.0718388]},"properties":{"layer":"heritage","osm_type":"node","osm_id":10139529404,"name":null,"tags":{"historic":"wayside_shrine"}}},{"type":"Feature","geometry":{"type":"Point","coordinates":[80.2611902,13.0717497]},"properties":{"layer":"heritage","osm_type":"node","osm_id":10139529405,"name":null,"tags":{"historic":"wayside_shrine"}}},{"type":"Feature","geometry":{"type":"Point","coordinates":[80.2932976,13.1018104]},"properties":{"layer":"heritage","osm_type":"node","osm_id":10156274241,"name":null,"tags":{"historic":"wayside_shrine","religion":"christian"}}},{"type":"Feature","geometry":{"type":"Point","coordinates":[78.1430619,8.8378245]},"properties":{"layer":"heritage","osm_type":"node","osm_id":10169285914,"name":null,"tags":{"historic":"wayside_shrine","religion":"hindu","source":"survey"}}},{"type":"Feature","geometry":{"type":"Point","coordinates":[80.2798878,13.0360476]},"properties":{"layer":"heritage","osm_type":"node","osm_id":10182053087,"name":null,"tags":{"historic":"wayside_shrine","religion":"christian"}}},{"type":"Feature","geometry":{"type":"Point","coordinates":[80.2800565,13.0376233]},"properties":{"layer":"heritage","osm_type":"node","osm_id":10182053120,"name":null,"tags":{"historic":"wayside_shrine","religion":"hindu"}}},{"type":"Feature","geometry":{"type":"Point","coordinates":[80.2800731,13.0377592]},"properties":{"layer":"heritage","osm_type":"node","osm_id":10182053131,"name":null,"tags":{"historic":"memorial"}}},{"type":"Feature","geometry":{"type":"Point","coordinates":[80.2797998,13.0390199]},"properties":{"layer":"heritage","osm_type":"node","osm_id":10182053212,"name":null,"tags":{"historic":"wayside_shrine"}}},{"type":"Feature","geometry":{"type":"Point","coordinates":[80.2713741,13.0812606]},"properties":{"layer":"heritage","osm_type":"node","osm_id":10200998180,"name":"Cannon","tags":{"historic":"memorial","memorial":"cannon","name":"Cannon"}}},{"type":"Feature","geometry":{"type":"Point","coordinates":[80.2711971,13.0812429]},"properties":{"layer":"heritage","osm_type":"node","osm_id":10201010890,"name":null,"tags":{"historic":"memorial"}}},{"type":"Feature","geometry":{"type":"Point","coordinates":[80.2719592,13.0813815]},"properties":{"layer":"heritage","osm_type":"node","osm_id":10201011158,"name":"Cannon","tags":{"historic":"memorial","memorial":"cannon","name":"Cannon"}}},{"type":"Feature","geometry":{"type":"Point","coordinates":[80.2892411,13.0970481]},"properties":{"layer":"heritage","osm_type":"node","osm_id":10209000536,"name":null,"tags":{"historic":"wayside_shrine"}}},{"type":"Feature","geometry":{"type":"Point","coordinates":[80.293377,13.0987505]},"properties":{"layer":"heritage","osm_type":"node","osm_id":10209543590,"name":null,"tags":{"historic":"wayside_shrine","religion":"christian"}}},{"type":"Feature","geometry":{"type":"Point","coordinates":[80.0045579,13.1305555]},"properties":{"layer":"heritage","osm_type":"node","osm_id":10235283023,"name":null,"tags":{"historic":"monument"}}},{"type":"Feature","geometry":{"type":"Point","coordinates":[78.1562826,11.6568018]},"properties":{"layer":"heritage","osm_type":"node","osm_id":10243925246,"name":"Millitry Tank","tags":{"historic":"pillory","name":"Millitry Tank"}}},{"type":"Feature","geometry":{"type":"Point","coordinates":[80.1919684,12.9985702]},"properties":{"layer":"heritage","osm_type":"node","osm_id":10268822150,"name":"T-55","tags":{"historic":"monument","name":"T-55","tank:model":"T-55","war_memorial":"yes"}}},{"type":"Feature","geometry":{"type":"Point","coordinates":[80.2842043,13.0681608]},"properties":{"layer":"heritage","osm_type":"node","osm_id":10308756661,"name":null,"tags":{"historic":"memorial","memorial":"plaque"}}},{"type":"Feature","geometry":{"type":"Point","coordinates":[80.2732181,13.0734541]},"properties":{"layer":"heritage","osm_type":"node","osm_id":10313205137,"name":"May Day Monument","tags":{"historic":"monument","name":"May Day Monument"}}},{"type":"Feature","geometry":{"type":"Point","coordinates":[80.2565412,13.0603066]},"properties":{"layer":"heritage","osm_type":"node","osm_id":10316942588,"name":null,"tags":{"historic":"wayside_shrine","religion":"hindu"}}},{"type":"Feature","geometry":{"type":"Point","coordinates":[80.2566979,13.0598866]},"properties":{"layer":"heritage","osm_type":"node","osm_id":10316946115,"name":null,"tags":{"historic":"wayside_shrine","religion":"hindu"}}},{"type":"Feature","geometry":{"type":"Point","coordinates":[80.2569371,13.0590901]},"properties":{"layer":"heritage","osm_type":"node","osm_id":10316946130,"name":null,"tags":{"historic":"wayside_cross"}}},{"type":"Feature","geometry":{"type":"Point","coordinates":[80.2569938,13.0590553]},"properties":{"layer":"heritage","osm_type":"node","osm_id":10316946131,"name":null,"tags":{"historic":"wayside_shrine","religion":"christian"}}},{"type":"Feature","geometry":{"type":"Point","coordinates":[80.2570613,13.0586808]},"properties":{"layer":"heritage","osm_type":"node","osm_id":10316946170,"name":null,"tags":{"historic":"wayside_shrine","religion":"hindu"}}},{"type":"Feature","geometry":{"type":"Point","coordinates":[80.2623074,13.0617841]},"properties":{"layer":"heritage","osm_type":"node","osm_id":10320115184,"name":null,"tags":{"historic":"wayside_shrine","religion":"hindu"}}},{"type":"Feature","geometry":{"type":"Point","coordinates":[80.2761496,13.1027569]},"properties":{"layer":"heritage","osm_type":"node","osm_id":10574083254,"name":null,"tags":{"historic":"wayside_shrine"}}},{"type":"Feature","geometry":{"type":"Point","coordinates":[80.2246204,13.0193927]},"properties":{"layer":"heritage","osm_type":"node","osm_id":10575306250,"name":"Marmalong Bridge (1728-1966) Monument","tags":{"historic":"monument","name":"Marmalong Bridge (1728-1966) Monument"}}},{"type":"Feature","geometry":{"type":"Point","coordinates":[80.2013966,13.0053041]},"properties":{"layer":"heritage","osm_type":"node","osm_id":10593460487,"name":null,"tags":{"historic":"memorial","memorial":"plaque"}}},{"type":"Feature","geometry":{"type":"Point","coordinates":[80.2873563,13.09986]},"properties":{"layer":"heritage","osm_type":"node","osm_id":10593879602,"name":null,"tags":{"historic":"wayside_shrine"}}},{"type":"Feature","geometry":{"type":"Point","coordinates":[80.2881142,13.0974135]},"properties":{"layer":"heritage","osm_type":"node","osm_id":10595541673,"name":null,"tags":{"historic":"wayside_shrine"}}},{"type":"Feature","geometry":{"type":"Point","coordinates":[80.2886046,13.0976996]},"properties":{"layer":"heritage","osm_type":"node","osm_id":10595652694,"name":null,"tags":{"historic":"wayside_shrine","religion":"hindu"}}},{"type":"Feature","geometry":{"type":"Point","coordinates":[80.2903079,13.0975555]},"properties":{"layer":"heritage","osm_type":"node","osm_id":10596067201,"name":null,"tags":{"historic":"wayside_shrine"}}},{"type":"Feature","geometry":{"type":"Point","coordinates":[80.2938996,13.101289]},"properties":{"layer":"heritage","osm_type":"node","osm_id":10603812291,"name":null,"tags":{"historic":"wayside_shrine","religion":"muslim"}}},{"type":"Feature","geometry":{"type":"Point","coordinates":[80.293244,13.0998059]},"properties":{"layer":"heritage","osm_type":"node","osm_id":10603812296,"name":null,"tags":{"historic":"wayside_shrine"}}},{"type":"Feature","geometry":{"type":"Point","coordinates":[80.293669,13.1005367]},"properties":{"layer":"heritage","osm_type":"node","osm_id":10603819031,"name":null,"tags":{"historic":"wayside_shrine","religion":"hindu"}}},{"type":"Feature","geometry":{"type":"Point","coordinates":[80.280738,13.0804251]},"properties":{"layer":"heritage","osm_type":"node","osm_id":10604028542,"name":"Chennai Zero Mile","tags":{"historic":"monument","level":"2","name":"Chennai Zero Mile"}}},{"type":"Feature","geometry":{"type":"Point","coordinates":[80.2918617,13.098549]},"properties":{"layer":"heritage","osm_type":"node","osm_id":10675445774,"name":null,"tags":{"historic":"memorial","memorial":"plaque"}}},{"type":"Feature","geometry":{"type":"Point","coordinates":[80.290618,13.1024414]},"properties":{"layer":"heritage","osm_type":"node","osm_id":10675652309,"name":null,"tags":{"historic":"wayside_shrine","religion":"hindu"}}},{"type":"Feature","geometry":{"type":"Point","coordinates":[80.293017,13.0997735]},"properties":{"layer":"heritage","osm_type":"node","osm_id":10675879124,"name":null,"tags":{"historic":"wayside_shrine","religion":"christian"}}},{"type":"Feature","geometry":{"type":"Point","coordinates":[80.289485,13.099369]},"properties":{"layer":"heritage","osm_type":"node","osm_id":10677117038,"name":null,"tags":{"historic":"wayside_shrine","religion":"hindu"}}},{"type":"Feature","geometry":{"type":"Point","coordinates":[80.2888996,13.0991191]},"properties":{"layer":"heritage","osm_type":"node","osm_id":10677117049,"name":null,"tags":{"historic":"wayside_shrine","religion":"hindu"}}},{"type":"Feature","geometry":{"type":"Point","coordinates":[80.2896308,13.1013767]},"properties":{"layer":"heritage","osm_type":"node","osm_id":10677117134,"name":null,"tags":{"historic":"wayside_shrine"}}},{"type":"Feature","geometry":{"type":"Point","coordinates":[80.2869406,13.1020749]},"properties":{"layer":"heritage","osm_type":"node","osm_id":10703369725,"name":null,"tags":{"historic":"wayside_shrine","religion":"hindu"}}},{"type":"Feature","geometry":{"type":"Point","coordinates":[80.2869385,13.1017569]},"properties":{"layer":"heritage","osm_type":"node","osm_id":10703624087,"name":null,"tags":{"historic":"wayside_shrine","religion":"christian"}}},{"type":"Feature","geometry":{"type":"Point","coordinates":[80.2869851,13.1017901]},"properties":{"layer":"heritage","osm_type":"node","osm_id":10703624089,"name":null,"tags":{"historic":"wayside_shrine","religion":"hindu"}}},{"type":"Feature","geometry":{"type":"Point","coordinates":[80.2876953,13.1017249]},"properties":{"layer":"heritage","osm_type":"node","osm_id":10703628157,"name":null,"tags":{"historic":"wayside_shrine","religion":"christian"}}},{"type":"Feature","geometry":{"type":"Point","coordinates":[80.2876794,13.101736]},"properties":{"layer":"heritage","osm_type":"node","osm_id":10703628158,"name":null,"tags":{"historic":"wayside_cross"}}},{"type":"Feature","geometry":{"type":"Point","coordinates":[80.2800121,13.0998909]},"properties":{"layer":"heritage","osm_type":"node","osm_id":10741148354,"name":null,"tags":{"historic":"wayside_shrine","religion":"hindu"}}},{"type":"Feature","geometry":{"type":"Point","coordinates":[80.2839454,13.0893232]},"properties":{"layer":"heritage","osm_type":"node","osm_id":10758035522,"name":null,"tags":{"historic":"wayside_shrine","religion":"christian"}}},{"type":"Feature","geometry":{"type":"Point","coordinates":[79.4566412,12.1076769]},"properties":{"layer":"heritage","osm_type":"node","osm_id":10761052192,"name":"Rockcut Art","tags":{"historic":"archaeological_site","name":"Rockcut Art"}}},{"type":"Feature","geometry":{"type":"Point","coordinates":[79.3360673,12.0601311]},"properties":{"layer":"heritage","osm_type":"node","osm_id":10761072384,"name":"Goddess","tags":{"historic":"archaeological_site","name":"Goddess"}}},{"type":"Feature","geometry":{"type":"Point","coordinates":[79.3360843,12.059896]},"properties":{"layer":"heritage","osm_type":"node","osm_id":10761077949,"name":"Padhukkai","tags":{"historic":"archaeological_site","name":"Padhukkai"}}},{"type":"Feature","geometry":{"type":"Point","coordinates":[80.2792647,13.0887062]},"properties":{"layer":"heritage","osm_type":"node","osm_id":10772530051,"name":null,"tags":{"historic":"wayside_shrine","religion":"hindu"}}},{"type":"Feature","geometry":{"type":"Point","coordinates":[77.2888275,10.1692557]},"properties":{"layer":"heritage","osm_type":"node","osm_id":10777172638,"name":"Milestone","tags":{"historic":"milestone","name":"Milestone"}}},{"type":"Feature","geometry":{"type":"Point","coordinates":[77.4368718,10.198354]},"properties":{"layer":"heritage","osm_type":"node","osm_id":10777195091,"name":"Milestone","tags":{"historic":"milestone","name":"Milestone"}}},{"type":"Feature","geometry":{"type":"Point","coordinates":[77.4103284,10.1752439]},"properties":{"layer":"heritage","osm_type":"node","osm_id":10777211354,"name":"Milestone","tags":{"historic":"milestone","name":"Milestone"}}},{"type":"Feature","geometry":{"type":"Point","coordinates":[77.324047,10.1485167]},"properties":{"layer":"heritage","osm_type":"node","osm_id":10777232993,"name":"Milestone","tags":{"historic":"milestone","name":"Milestone"}}},{"type":"Feature","geometry":{"type":"Point","coordinates":[77.4417497,10.2052961]},"properties":{"layer":"heritage","osm_type":"node","osm_id":10777241530,"name":"Milestone","tags":{"historic":"milestone","name":"Milestone"}}},{"type":"Feature","geometry":{"type":"Point","coordinates":[77.2989381,10.1626009]},"properties":{"layer":"heritage","osm_type":"node","osm_id":10777251409,"name":"Milestone","tags":{"historic":"milestone","name":"Milestone"}}},{"type":"Feature","geometry":{"type":"Point","coordinates":[77.2981929,10.1606025]},"properties":{"layer":"heritage","osm_type":"node","osm_id":10777257478,"name":"Forest quarters","tags":{"historic":"ruins","name":"Forest quarters"}}},{"type":"Feature","geometry":{"type":"Point","coordinates":[80.2805769,13.0882372]},"properties":{"layer":"heritage","osm_type":"node","osm_id":10796592637,"name":null,"tags":{"historic":"wayside_shrine","religion":"hindu"}}},{"type":"Feature","geometry":{"type":"Point","coordinates":[79.74892,13.112182]},"properties":{"layer":"heritage","osm_type":"node","osm_id":10892539369,"name":null,"tags":{"historic":"wayside_shrine","religion":"hindu"}}},{"type":"Feature","geometry":{"type":"Point","coordinates":[79.7495272,13.1129905]},"properties":{"layer":"heritage","osm_type":"node","osm_id":10892539371,"name":null,"tags":{"historic":"monument"}}},{"type":"Feature","geometry":{"type":"Point","coordinates":[80.2734606,13.1037794]},"properties":{"layer":"heritage","osm_type":"node","osm_id":10893129584,"name":null,"tags":{"historic":"wayside_shrine"}}},{"type":"Feature","geometry":{"type":"Point","coordinates":[80.274516,13.1020583]},"properties":{"layer":"heritage","osm_type":"node","osm_id":10893148866,"name":null,"tags":{"historic":"wayside_shrine"}}},{"type":"Feature","geometry":{"type":"Point","coordinates":[80.279821,13.0927635]},"properties":{"layer":"heritage","osm_type":"node","osm_id":10895930404,"name":null,"tags":{"historic":"wayside_shrine"}}},{"type":"Feature","geometry":{"type":"Point","coordinates":[80.2788103,13.0934136]},"properties":{"layer":"heritage","osm_type":"node","osm_id":10913194811,"name":null,"tags":{"historic":"wayside_shrine"}}},{"type":"Feature","geometry":{"type":"Point","coordinates":[79.1323862,12.9165172]},"properties":{"layer":"heritage","osm_type":"node","osm_id":10913695286,"name":"Victoria Jubilee Memorial Pillar","tags":{"historic":"monument","name":"Victoria Jubilee Memorial Pillar"}}},{"type":"Feature","geometry":{"type":"Point","coordinates":[79.1374203,12.9661147]},"properties":{"layer":"heritage","osm_type":"node","osm_id":10926091572,"name":null,"tags":{"historic":"memorial","mapillary":"198538935949992","memorial":"statue","subject:wikidata":"Q138765"}}},{"type":"Feature","geometry":{"type":"Point","coordinates":[76.9679518,10.9961655]},"properties":{"layer":"heritage","osm_type":"node","osm_id":10926247506,"name":null,"tags":{"description":"old engine sculpture","historic":"memorial","memorial":"sculpture"}}},{"type":"Feature","geometry":{"type":"Point","coordinates":[80.2843045,13.0927246]},"properties":{"layer":"heritage","osm_type":"node","osm_id":10933186958,"name":null,"tags":{"historic":"wayside_shrine","religion":"hindu"}}},{"type":"Feature","geometry":{"type":"Point","coordinates":[80.2804339,13.0972783]},"properties":{"layer":"heritage","osm_type":"node","osm_id":10933383112,"name":null,"tags":{"historic":"wayside_shrine"}}},{"type":"Feature","geometry":{"type":"Point","coordinates":[80.282729,13.0985911]},"properties":{"layer":"heritage","osm_type":"node","osm_id":10933495069,"name":null,"tags":{"historic":"wayside_shrine"}}},{"type":"Feature","geometry":{"type":"Point","coordinates":[80.2798511,13.0960205]},"properties":{"layer":"heritage","osm_type":"node","osm_id":10933682422,"name":null,"tags":{"historic":"wayside_shrine"}}},{"type":"Feature","geometry":{"type":"Point","coordinates":[79.3262311,12.9335369]},"properties":{"layer":"heritage","osm_type":"node","osm_id":10943766876,"name":"Dr.SIlas Scudder","tags":{"historic":"memorial","material":"stone","memorial":"bust","name":"Dr.SIlas Scudder","wikimedia_commons":"File:Bust of Dr.Silas Scudder -2 at SMH.jpg"}}},{"type":"Feature","geometry":{"type":"Point","coordinates":[79.3262808,12.9335413]},"properties":{"layer":"heritage","osm_type":"node","osm_id":10943766877,"name":null,"tags":{"historic":"memorial","memorial":"plaque","wikimedia_commons":"File:Commemerative Plaque at Scudder Memorial Hospital,Ranipet.jpg"}}},{"type":"Feature","geometry":{"type":"Point","coordinates":[79.326314,12.9335382]},"properties":{"layer":"heritage","osm_type":"node","osm_id":10943766878,"name":null,"tags":{"historic":"memorial","memorial":"plaque","wikimedia_commons":"File:Commemerative Plaque at Scudder Memorial Hospital,Ranipet.jpg"}}},{"type":"Feature","geometry":{"type":"Point","coordinates":[79.326301,12.9335551]},"properties":{"layer":"heritage","osm_type":"node","osm_id":10943766879,"name":null,"tags":{"historic":"memorial","memorial":"plaque","wikimedia_commons":"File:Commemerative Plaque at Scudder Memorial Hospital,Ranipet.jpg"}}},{"type":"Feature","geometry":{"type":"Point","coordinates":[79.3262969,12.9335242]},"properties":{"layer":"heritage","osm_type":"node","osm_id":10943766880,"name":null,"tags":{"historic":"memorial","memorial":"plaque","wikimedia_commons":"File:Memorial at SMH.jpg"}}},{"type":"Feature","geometry":{"type":"Point","coordinates":[80.2841842,13.1025151]},"properties":{"layer":"heritage","osm_type":"node","osm_id":10963479041,"name":null,"tags":{"historic":"wayside_shrine","religion":"christian"}}},{"type":"Feature","geometry":{"type":"Point","coordinates":[80.2844125,13.0976399]},"properties":{"layer":"heritage","osm_type":"node","osm_id":10967312010,"name":null,"tags":{"historic":"wayside_shrine","religion":"hindu"}}},{"type":"Feature","geometry":{"type":"Point","coordinates":[80.1980293,12.742212]},"properties":{"layer":"heritage","osm_type":"node","osm_id":11003047303,"name":"Sreenidhi The Village","tags":{"historic":"city_gate","name":"Sreenidhi The Village"}}},{"type":"Feature","geometry":{"type":"Point","coordinates":[78.7208829,12.9429674]},"properties":{"layer":"heritage","osm_type":"node","osm_id":11195337027,"name":null,"tags":{"historic":"wayside_shrine"}}},{"type":"Feature","geometry":{"type":"Point","coordinates":[77.9635701,10.3608435]},"properties":{"layer":"heritage","osm_type":"node","osm_id":11294844218,"name":null,"tags":{"historic":"cannon"}}},{"type":"Feature","geometry":{"type":"Point","coordinates":[77.9635526,10.3609046]},"properties":{"layer":"heritage","osm_type":"node","osm_id":11294844219,"name":null,"tags":{"historic":"cannon"}}},{"type":"Feature","geometry":{"type":"Point","coordinates":[79.8160445,13.0614979]},"properties":{"layer":"heritage","osm_type":"node","osm_id":11374800335,"name":null,"tags":{"historic":"wayside_shrine"}}},{"type":"Feature","geometry":{"type":"Point","coordinates":[78.1555064,11.656561]},"properties":{"layer":"heritage","osm_type":"node","osm_id":11389685033,"name":"Ashoka Sthubi","tags":{"access":"permit","historic":"pillory","name":"Ashoka Sthubi"}}},{"type":"Feature","geometry":{"type":"Point","coordinates":[79.5490863,11.6228604]},"properties":{"layer":"heritage","osm_type":"node","osm_id":11468630269,"name":null,"tags":{"historic":"monument","name:en":"Neyveli township arch"}}},{"type":"Feature","geometry":{"type":"Point","coordinates":[80.0684665,13.0448153]},"properties":{"layer":"heritage","osm_type":"node","osm_id":11477245163,"name":null,"tags":{"historic":"monument"}}},{"type":"Feature","geometry":{"type":"Point","coordinates":[80.2616289,12.9923625]},"properties":{"layer":"heritage","osm_type":"node","osm_id":11491457872,"name":null,"tags":{"historic":"monument"}}},{"type":"Feature","geometry":{"type":"Point","coordinates":[80.1490742,12.9676633]},"properties":{"layer":"heritage","osm_type":"node","osm_id":11491523589,"name":null,"tags":{"historic":"memorial","memorial":"bust"}}},{"type":"Feature","geometry":{"type":"Point","coordinates":[80.1403559,12.952156]},"properties":{"layer":"heritage","osm_type":"node","osm_id":11491532934,"name":null,"tags":{"historic":"memorial"}}},{"type":"Feature","geometry":{"type":"Point","coordinates":[80.1939606,13.0054087]},"properties":{"layer":"heritage","osm_type":"node","osm_id":11491541463,"name":"Pope John Paul II","tags":{"historic":"memorial","memorial":"statue","name":"Pope John Paul II","subject:wikidata":"Q989","subject:wikipedia":"en:Pope John Paul II"}}},{"type":"Feature","geometry":{"type":"Point","coordinates":[80.1939524,13.0053135]},"properties":{"layer":"heritage","osm_type":"node","osm_id":11491541465,"name":"Mother Teresa","tags":{"historic":"memorial","memorial":"statue","name":"Mother Teresa","subject:wikidata":"Q30547","subject:wikipedia":"en:Mother Teresa"}}},{"type":"Feature","geometry":{"type":"Point","coordinates":[80.1938544,13.0053941]},"properties":{"layer":"heritage","osm_type":"node","osm_id":11491541466,"name":null,"tags":{"historic":"monument"}}},{"type":"Feature","geometry":{"type":"Point","coordinates":[80.1990246,13.0127681]},"properties":{"layer":"heritage","osm_type":"node","osm_id":11491573434,"name":null,"tags":{"historic":"monument"}}},{"type":"Feature","geometry":{"type":"Point","coordinates":[80.1992289,13.0127213]},"properties":{"layer":"heritage","osm_type":"node","osm_id":11491573436,"name":null,"tags":{"historic":"wayside_shrine"}}},{"type":"Feature","geometry":{"type":"Point","coordinates":[80.2304012,13.0258864]},"properties":{"layer":"heritage","osm_type":"node","osm_id":11491610136,"name":"Fourbeck Bridge (Marmalong Brook Bridge) Monument","tags":{"historic":"monument","name":"Fourbeck Bridge (Marmalong Brook Bridge) Monument"}}},{"type":"Feature","geometry":{"type":"Point","coordinates":[80.2015429,13.0055545]},"properties":{"layer":"heritage","osm_type":"node","osm_id":11491649113,"name":"Lt. Col. Samuel Dalrymple (Madras Artillery) Cupola","tags":{"historic":"memorial","memorial":"war_memorial","name":"Lt. Col. Samuel Dalrymple (Madras Artillery) Cupola"}}},{"type":"Feature","geometry":{"type":"Point","coordinates":[80.2574632,13.0456353]},"properties":{"layer":"heritage","osm_type":"node","osm_id":11492710973,"name":"The Nation Remembers","tags":{"historic":"monument","name":"The Nation Remembers"}}},{"type":"Feature","geometry":{"type":"Point","coordinates":[80.2557937,13.0778321]},"properties":{"layer":"heritage","osm_type":"node","osm_id":11495672400,"name":null,"tags":{"historic":"wayside_shrine","religion":"christian"}}},{"type":"Feature","geometry":{"type":"Point","coordinates":[80.2814933,13.1034607]},"properties":{"layer":"heritage","osm_type":"node","osm_id":11496216077,"name":null,"tags":{"historic":"wayside_shrine","religion":"christian"}}},{"type":"Feature","geometry":{"type":"Point","coordinates":[80.2855522,13.1001181]},"properties":{"layer":"heritage","osm_type":"node","osm_id":11496902101,"name":null,"tags":{"historic":"wayside_shrine","religion":"hindu"}}},{"type":"Feature","geometry":{"type":"Point","coordinates":[80.2761434,13.1026782]},"properties":{"layer":"heritage","osm_type":"node","osm_id":11502749862,"name":null,"tags":{"historic":"monument"}}},{"type":"Feature","geometry":{"type":"Point","coordinates":[80.2799246,13.1031859]},"properties":{"layer":"heritage","osm_type":"node","osm_id":11505503045,"name":null,"tags":{"historic":"wayside_shrine","religion":"hindu"}}},{"type":"Feature","geometry":{"type":"Point","coordinates":[80.285602,13.1023412]},"properties":{"layer":"heritage","osm_type":"node","osm_id":11510723972,"name":null,"tags":{"historic":"wayside_shrine","religion":"hindu"}}},{"type":"Feature","geometry":{"type":"Point","coordinates":[80.2867301,13.1008374]},"properties":{"layer":"heritage","osm_type":"node","osm_id":11510724080,"name":null,"tags":{"historic":"wayside_shrine","religion":"christian"}}},{"type":"Feature","geometry":{"type":"Point","coordinates":[80.2848663,13.0992388]},"properties":{"layer":"heritage","osm_type":"node","osm_id":11513594834,"name":null,"tags":{"historic":"wayside_shrine","religion":"christian"}}},{"type":"Feature","geometry":{"type":"Point","coordinates":[80.2865482,13.098939]},"properties":{"layer":"heritage","osm_type":"node","osm_id":11513712454,"name":null,"tags":{"historic":"wayside_shrine","religion":"christian"}}},{"type":"Feature","geometry":{"type":"Point","coordinates":[80.2864816,13.0988172]},"properties":{"layer":"heritage","osm_type":"node","osm_id":11513712461,"name":null,"tags":{"historic":"wayside_shrine","religion":"christian"}}},{"type":"Feature","geometry":{"type":"Point","coordinates":[79.837886,13.0361919]},"properties":{"layer":"heritage","osm_type":"node","osm_id":11524374305,"name":null,"tags":{"historic":"monument"}}},{"type":"Feature","geometry":{"type":"Point","coordinates":[80.2834306,13.0983478]},"properties":{"layer":"heritage","osm_type":"node","osm_id":11533507605,"name":null,"tags":{"historic":"wayside_shrine","religion":"hindu"}}},{"type":"Feature","geometry":{"type":"Point","coordinates":[80.28303,13.0984272]},"properties":{"layer":"heritage","osm_type":"node","osm_id":11533690475,"name":null,"tags":{"historic":"wayside_shrine"}}},{"type":"Feature","geometry":{"type":"Point","coordinates":[79.3674909,10.9151126]},"properties":{"layer":"heritage","osm_type":"node","osm_id":11831919109,"name":"Great King Raja Raja Chozhan I Memorial","tags":{"historic":"memorial","name":"Great King Raja Raja Chozhan I Memorial"}}},{"type":"Feature","geometry":{"type":"Point","coordinates":[79.1203733,12.8801134]},"properties":{"layer":"heritage","osm_type":"node","osm_id":11955394742,"name":"Main gate tpgit","tags":{"historic":"city_gate","name":"Main gate tpgit"}}},{"type":"Feature","geometry":{"type":"Point","coordinates":[79.0782741,10.9193587]},"properties":{"layer":"heritage","osm_type":"node","osm_id":12078431209,"name":"Punitha Vanattha Chinnappar Aalayam","tags":{"historic":"wayside_shrine","name":"Punitha Vanattha Chinnappar Aalayam","name:ta":"\u0baa\u0bc1\u0ba9\u0bbf\u0ba4 \u0bb5\u0ba9\u0ba4\u0bcd\u0ba4 \u0b9a\u0bbf\u0ba9\u0bcd\u0ba9\u0baa\u0bcd\u0baa\u0bb0\u0bcd \u0b86\u0bb2\u0baf\u0bae\u0bcd","religion":"christian","source":"survey"}}},{"type":"Feature","geometry":{"type":"Point","coordinates":[79.4406533,11.5384669]},"properties":{"layer":"heritage","osm_type":"node","osm_id":12078461970,"name":null,"tags":{"historic":"wayside_shrine","religion":"hindu","source":"survey"}}},{"type":"Feature","geometry":{"type":"Point","coordinates":[80.1530341,12.8405315]},"properties":{"layer":"heritage","osm_type":"node","osm_id":12108610361,"name":"Main gate 1","tags":{"historic":"city_gate","name":"Main gate 1"}}},{"type":"Feature","geometry":{"type":"Point","coordinates":[78.3752504,9.4153122]},"properties":{"layer":"heritage","osm_type":"node","osm_id":12121948117,"name":"Kamudi Kottai","tags":{"historic":"monument","inscription":"Kamudi Kottai, Kamudi","name":"Kamudi Kottai"}}},{"type":"Feature","geometry":{"type":"Point","coordinates":[79.1317494,12.9225191]},"properties":{"layer":"heritage","osm_type":"node","osm_id":12369327484,"name":null,"tags":{"historic":"memorial","mapillary":"563126793096926","memorial":"sculpture"}}},{"type":"Feature","geometry":{"type":"Point","coordinates":[79.1316569,12.9211481]},"properties":{"layer":"heritage","osm_type":"node","osm_id":12369335275,"name":null,"tags":{"historic":"memorial"}}},{"type":"Feature","geometry":{"type":"Point","coordinates":[79.1327206,12.915236]},"properties":{"layer":"heritage","osm_type":"node","osm_id":12369362217,"name":null,"tags":{"historic":"memorial","material":"metal","memorial":"statue","subject:wikidata":"Q127868","subject:wikipedia":"en:M. G. Ramachandran"}}},{"type":"Feature","geometry":{"type":"Point","coordinates":[79.1327114,12.915184]},"properties":{"layer":"heritage","osm_type":"node","osm_id":12369362218,"name":null,"tags":{"historic":"memorial","material":"metal","memorial":"statue","subject:wikidata":"Q138765","subject:wikipedia":"en:C. N. Annadurai"}}},{"type":"Feature","geometry":{"type":"Point","coordinates":[78.2536716,10.0190397]},"properties":{"layer":"heritage","osm_type":"node","osm_id":12400402157,"name":"Meenakishipuram Mangulam inscription","tags":{"historic":"monument","name":"Meenakishipuram Mangulam inscription"}}},{"type":"Feature","geometry":{"type":"Point","coordinates":[78.2633287,10.0275525]},"properties":{"layer":"heritage","osm_type":"node","osm_id":12400413529,"name":"Mangulam Tamil inscription","tags":{"historic":"monument","name":"Mangulam Tamil inscription"}}},{"type":"Feature","geometry":{"type":"Point","coordinates":[78.255592,10.021063]},"properties":{"layer":"heritage","osm_type":"node","osm_id":12400416120,"name":"Thamizhi inscription","tags":{"historic":"monument","name":"Thamizhi inscription"}}},{"type":"Feature","geometry":{"type":"Point","coordinates":[78.2620508,10.0267259]},"properties":{"layer":"heritage","osm_type":"node","osm_id":12400416121,"name":"Tamil Brahmi inscriptions","tags":{"historic":"monument","name":"Tamil Brahmi inscriptions"}}},{"type":"Feature","geometry":{"type":"Point","coordinates":[77.6493782,11.9540695]},"properties":{"layer":"heritage","osm_type":"node","osm_id":12570393209,"name":"Forest Guard martyred by Poachers","tags":{"historic":"memorial","image":"https://commons.wikimedia.org/wiki/File:Mohaniahha_comomerative_stone_palar_bridge.jpg","inscription":"\u0c9a\u0cbf\u0cb0\u0cb8\u0ccd\u0cae\u0cb0\u0ca3\u0cc6\n \u0cb6\u0ccd\u0cb0\u0cc0 \u0cac\u0cbf.\u0cb8\u0cbf.\u0cae\u0ccb\u0cb9\u0ca8\u0caf\u0ccd\u0caf, \u0c85\u0cb0\u0ca3\u0ccd\u0caf \u0cb0\u0c95\u0ccd\u0cb7\u0c95 \u0c87\u0cb5\u0cb0\u0cc1 \u0c95\u0cb0\u0ccd\u0ca4\u0cb5\u0ccd\u0caf \u0ca8\u0cbf\u0cb0\u0ca4\u0cb0\u0cbe\u0c97\u0cbf\u0ca6\u0ccd\u0ca6\u0cbe\u0c97 \u0ca6\u0cbf\u0ca8\u0cbe\u0c82\u0c95. 4-8 - 1989 \u0cb0\u0c82\u0ca6\u0cc1 \u0cb9\u0c82\u0ca4\u0c95\u0cb0 \u0c97\u0cc1\u0c82\u0ca6\u0cbf\u0c97 \u0cac\u0cb2\u0cbf\u0caf\u0cbe\u0c97\u0cbf \u0caa\u0ccd\u0cb0\u0ca4\u0cbe\u0ca4\u0ccd\u0cae\u0cb0\u0cbe\u0ca6\u0cb0\u0cc1 \u0cb8\u0ccd\u0ca5\u0cb3:\u0caa\u0cbe\u0cb2\u0cbe\u0cb0\u0ccd \u0c95\u0cb0\u0ccd\u0ca8\u0cbe\u0c9f\u0c95 \u0c85\u0cb0\u0ca3\u0ccd\u0caf \u0c87\u0cb2\u0cbe\u0c96\u0cc6.","material":"concrete","memorial":"plaque","name":"Forest Guard martyred by Poachers"}}},{"type":"Feature","geometry":{"type":"Point","coordinates":[77.9355421,9.080484]},"properties":{"layer":"heritage","osm_type":"node","osm_id":12622199529,"name":"Veeramamunivar Memorial","tags":{"historic":"memorial","memorial":"building","name":"Veeramamunivar Memorial","source":"survey"}}},{"type":"Feature","geometry":{"type":"Point","coordinates":[77.9329129,9.0698529]},"properties":{"layer":"heritage","osm_type":"node","osm_id":12622199533,"name":null,"tags":{"access":"yes","historic":"wayside_shrine","religion":"christian","source":"survey"}}},{"type":"Feature","geometry":{"type":"Point","coordinates":[79.8116352,13.0950782]},"properties":{"layer":"heritage","osm_type":"node","osm_id":12787618884,"name":null,"tags":{"historic":"monument"}}},{"type":"Feature","geometry":{"type":"Point","coordinates":[79.8117811,13.0952633]},"properties":{"layer":"heritage","osm_type":"node","osm_id":12787618889,"name":null,"tags":{"historic":"monument"}}},{"type":"Feature","geometry":{"type":"Point","coordinates":[79.8014326,13.0938508]},"properties":{"layer":"heritage","osm_type":"node","osm_id":12787619052,"name":null,"tags":{"historic":"monument"}}},{"type":"Feature","geometry":{"type":"Point","coordinates":[79.3262978,12.9335402]},"properties":{"layer":"heritage","osm_type":"node","osm_id":12805667608,"name":null,"tags":{"historic":"memorial","memorial":"plaque","wikimedia_commons":"File:Commemerative Plaque at Scudder Memorial Hospital,Ranipet.jpg"}}},{"type":"Feature","geometry":{"type":"Point","coordinates":[80.1975008,13.0125753]},"properties":{"layer":"heritage","osm_type":"node","osm_id":12917009773,"name":"Our Lady of Good Health","tags":{"denomination":"catholic","historic":"wayside_shrine","name":"Our Lady of Good Health","religion":"christian"}}},{"type":"Feature","geometry":{"type":"Point","coordinates":[80.1973715,13.0126368]},"properties":{"layer":"heritage","osm_type":"node","osm_id":12917009774,"name":null,"tags":{"historic":"wayside_shrine","religion":"hindu"}}},{"type":"Feature","geometry":{"type":"Point","coordinates":[80.1944406,13.0143562]},"properties":{"layer":"heritage","osm_type":"node","osm_id":12917009799,"name":"Cross of Sacrifice","tags":{"historic":"memorial","memorial":"war_memorial","name":"Cross of Sacrifice"}}},{"type":"Feature","geometry":{"type":"Point","coordinates":[79.6037018,12.5078275]},"properties":{"layer":"heritage","osm_type":"node","osm_id":12991089744,"name":"Battle of Wandiwash Memorial","tags":{"historic":"memorial","memorial":"war_memorial","name":"Battle of Wandiwash Memorial"}}},{"type":"Feature","geometry":{"type":"Point","coordinates":[79.6037043,12.5078455]},"properties":{"layer":"heritage","osm_type":"node","osm_id":12991089745,"name":null,"tags":{"historic":"cannon"}}},{"type":"Feature","geometry":{"type":"Point","coordinates":[80.2629402,13.0381748]},"properties":{"layer":"heritage","osm_type":"node","osm_id":13047631682,"name":null,"tags":{"historic":"wayside_shrine","religion":"christian"}}},{"type":"Feature","geometry":{"type":"Point","coordinates":[80.2724379,13.0258776]},"properties":{"layer":"heritage","osm_type":"node","osm_id":13047656691,"name":null,"tags":{"historic":"monument"}}},{"type":"Feature","geometry":{"type":"Point","coordinates":[79.4012314,11.8031641]},"properties":{"layer":"heritage","osm_type":"node","osm_id":13096992600,"name":null,"tags":{"historic":"wayside_shrine","religion":"christian"}}},{"type":"Feature","geometry":{"type":"Point","coordinates":[78.6328713,12.5854341]},"properties":{"layer":"heritage","osm_type":"node","osm_id":13108194269,"name":"Rector office","tags":{"historic":"memorial","inscription":"Fr.Guezou merorial","material":"building","memorial":"fr.guezou_merorial","name":"Rector office","short_name":"Fr.Guezou"}}},{"type":"Feature","geometry":{"type":"Point","coordinates":[79.9094761,12.9141653]},"properties":{"layer":"heritage","osm_type":"node","osm_id":13108583655,"name":null,"tags":{"historic":"memorial","memorial":"plaque"}}},{"type":"Feature","geometry":{"type":"Point","coordinates":[79.910179,12.9107324]},"properties":{"layer":"heritage","osm_type":"node","osm_id":13108583774,"name":null,"tags":{"historic":"memorial"}}},{"type":"Feature","geometry":{"type":"Point","coordinates":[79.915446,12.8913207]},"properties":{"layer":"heritage","osm_type":"node","osm_id":13157236508,"name":null,"tags":{"historic":"monument"}}},{"type":"Feature","geometry":{"type":"Point","coordinates":[77.7907694,8.7157025]},"properties":{"layer":"heritage","osm_type":"node","osm_id":13164948176,"name":"Physics","tags":{"historic":"wayside_cross","name":"Physics"}}},{"type":"Feature","geometry":{"type":"Point","coordinates":[78.0221341,8.7296487]},"properties":{"layer":"heritage","osm_type":"node","osm_id":13239865245,"name":null,"tags":{"historic":"monument"}}},{"type":"Feature","geometry":{"type":"Point","coordinates":[78.0234354,8.7293981]},"properties":{"layer":"heritage","osm_type":"node","osm_id":13239865246,"name":null,"tags":{"historic":"monument"}}},{"type":"Feature","geometry":{"type":"Point","coordinates":[78.0227889,8.7295217]},"properties":{"layer":"heritage","osm_type":"node","osm_id":13239868370,"name":null,"tags":{"historic":"monument"}}},{"type":"Feature","geometry":{"type":"Point","coordinates":[80.2287868,12.9919866]},"properties":{"layer":"heritage","osm_type":"node","osm_id":13251686551,"name":null,"tags":{"artwork_subject":"Aeroplane","historic":"aircraft"}}},{"type":"Feature","geometry":{"type":"Point","coordinates":[80.0920683,12.8995145]},"properties":{"layer":"heritage","osm_type":"node","osm_id":13272072692,"name":"Mystery of life","tags":{"access":"private","historic":"monument","material":"steel","name":"Mystery of life","survey:date":"2025-10-31"}}},{"type":"Feature","geometry":{"type":"Point","coordinates":[78.090045,9.8901427]},"properties":{"layer":"heritage","osm_type":"node","osm_id":13335406137,"name":"Mathavan Dream House 2025( Pearl Palace)","tags":{"addr:city":"Pudukulam","addr:district":"Madurai","addr:postcode":"625003","addr:street":"Bykara","castle_type":"palace","historic":"castle","name":"Mathavan Dream House 2025( Pearl Palace)","start_date":"2025-11-27"}}},{"type":"Feature","geometry":{"type":"Point","coordinates":[79.3338032,12.9302148]},"properties":{"layer":"heritage","osm_type":"node","osm_id":13355916661,"name":"Kamarajar Memorial","tags":{"building":"house","historic":"house","name":"Kamarajar Memorial","subject:wikidata":"Q522048","wikimedia_commons":"File:Kamarajar Memorial Ranipet 1.jpg"}}},{"type":"Feature","geometry":{"type":"Point","coordinates":[79.3337898,12.9302077]},"properties":{"layer":"heritage","osm_type":"node","osm_id":13355916662,"name":null,"tags":{"direction":"270","historic":"memorial","material":"granite","memorial":"plaque","subject:wikidata":"Q522048","subject:wikipedia":"en:K. Kamaraj","wikimedia_commons":"File:Kamarajar Memorial Ranipet Plaque 1.jpg"}}},{"type":"Feature","geometry":{"type":"Point","coordinates":[79.3337904,12.930242]},"properties":{"layer":"heritage","osm_type":"node","osm_id":13355916663,"name":null,"tags":{"direction":"270","historic":"memorial","memorial":"plaque","wikimedia_commons":"File:Kamarajar Memorial Ranipet Plaque 2.jpg"}}},{"type":"Feature","geometry":{"type":"Point","coordinates":[80.2285046,12.9916878]},"properties":{"layer":"heritage","osm_type":"node","osm_id":13380583939,"name":null,"tags":{"artwork_subject":"Aeroplane","historic":"aircraft"}}},{"type":"Feature","geometry":{"type":"Point","coordinates":[77.9673282,9.6666679]},"properties":{"layer":"heritage","osm_type":"node","osm_id":13588886482,"name":"Kamarajar Manimandapam","tags":{"historic":"memorial","name":"Kamarajar Manimandapam"}}},{"type":"Feature","geometry":{"type":"Point","coordinates":[77.0259599,11.1007757]},"properties":{"layer":"heritage","osm_type":"node","osm_id":13644789123,"name":"MAIN GATE","tags":{"historic":"city_gate","name":"MAIN GATE"}}},{"type":"Feature","geometry":{"type":"Point","coordinates":[77.2378627,8.1792325]},"properties":{"layer":"heritage","osm_type":"node","osm_id":13754377482,"name":null,"tags":{"historic":"memorial","wikimedia_commons":"File:Colachel_town._tamilnadu_-_panoramio.jpg"}}},{"type":"Feature","geometry":{"type":"Point","coordinates":[78.1334688,8.5804961]},"properties":{"layer":"heritage","osm_type":"node","osm_id":13766191408,"name":null,"tags":{"historic":"wayside_cross"}}},{"type":"Feature","geometry":{"type":"Point","coordinates":[79.94537429218514,12.960806742195112]},"properties":{"layer":"heritage","osm_type":"way","osm_id":23650094,"name":"Rajiv Gandhi Memorial","tags":{"historic":"memorial","name":"Rajiv Gandhi Memorial","tourism":"attraction","wikidata":"Q3531991","wikipedia":"en:Rajiv Gandhi Memorial"}}},{"type":"Feature","geometry":{"type":"Point","coordinates":[76.69638719023752,11.40603759631856]},"properties":{"layer":"heritage","osm_type":"way","osm_id":25634808,"name":"Nilgiri Mountain Railway","tags":{"electrified":"no","gauge":"1000","heritage":"1","heritage:operator":"whc","historic":"yes","name":"Nilgiri Mountain Railway","railway":"narrow_gauge"}}},{"type":"Feature","geometry":{"type":"Point","coordinates":[76.70951294155536,11.411437596711078]},"properties":{"layer":"heritage","osm_type":"way","osm_id":25742025,"name":"Periyar Garden","tags":{"historic":"monument","leisure":"park","name":"Periyar Garden"}}},{"type":"Feature","geometry":{"type":"Point","coordinates":[80.29355714211859,13.104309209715044]},"properties":{"layer":"heritage","osm_type":"way","osm_id":26399018,"name":"Royapuram","tags":{"building":"train_station","historic":"yes","internet_access":"no","name":"Royapuram","name:ml":"\u0d31\u0d4b\u0d2f\u0d2a\u0d41\u0d30\u0d02","name:ta":"\u0bb0\u0bbe\u0baf\u0baa\u0bc1\u0bb0\u0bae\u0bcd","network":"IR","operator":"SR","public_transport":"station","railway":"station","ref":"RPM","wikidata":"Q7375145","wikipedia":"en:Royapuram railway station"}}},{"type":"Feature","geometry":{"type":"Point","coordinates":[80.15830452448554,12.503549497336207]},"properties":{"layer":"heritage","osm_type":"way","osm_id":31723902,"name":"Tsunami Memorial","tags":{"historic":"memorial","memorial":"park","name":"Tsunami Memorial"}}},{"type":"Feature","geometry":{"type":"Point","coordinates":[80.28213226795812,13.062002672387507]},"properties":{"layer":"heritage","osm_type":"way","osm_id":31897155,"name":"Public Works Department","tags":{"building":"yes","historic":"building","name":"Public Works Department","office":"government"}}},{"type":"Feature","geometry":{"type":"Point","coordinates":[78.1239339678106,9.914887993964161]},"properties":{"layer":"heritage","osm_type":"way","osm_id":49175978,"name":"Tirumalai Nayak Palace","tags":{"castle_type":"palace","historic":"castle","name":"Tirumalai Nayak Palace","name:ml":"\u0d24\u0d3f\u0d30\u0d41\u0d2e\u0d32\u0d28\u0d3e\u0d2f\u0d4d\u0d15\u0d4d\u0d15\u0d7b \u0d15\u0d4a\u0d1f\u0d4d\u0d1f\u0d3e\u0d30\u0d02","name:ta":"\u0ba4\u0bbf\u0bb0\u0bc1\u0bae\u0bb2\u0bc8 \u0ba8\u0bbe\u0baf\u0b95\u0bcd\u0b95\u0bb0\u0bcd \u0b85\u0bb0\u0ba3\u0bcd\u0bae\u0ba9\u0bc8","name:zh":"\u8482\u9c81\u739b\u83b1\u00b7\u7eb3\u4e9a\u514b\u5bab","tourism":"attraction","wheelchair":"yes","wikidata":"Q3536592","wikimedia_commons":"Category:Thirumalai Nayakkar Mahal","wikipedia":"en:Thirumalai Nayakkar Mahal"}}},{"type":"Feature","geometry":{"type":"Point","coordinates":[76.97095281343427,11.0069020256994]},"properties":{"layer":"heritage","osm_type":"way","osm_id":66102328,"name":"VOC Park","tags":{"addr:city":"Coimbatore","addr:district":"Coimbatore","addr:housenumber":"Gopalapuram","addr:postcode":"641018","addr:street":"Park Road","alt_name":"VOC Park & Zoo","description":"VOC Park, Coimbatore","historic":"park","leisure":"park","name":"VOC Park","name:etymology:wikidata":"Q492527","name:ta":"\u0bb5 \u0b89 \u0b9a\u0bbf \u0baa\u0bc2\u0b99\u0bcd\u0b95\u0bbe","natural":"park","opening_hours":"sunrise-sunset","operator":"Coimbatore City Corporation","operator:type":"government","website":"https://en.m.wikipedia.org/wiki/VOC_park_and_zoo","wikidata":"Q21930126","wikipedia":"en:VOC park and zoo"}}},{"type":"Feature","geometry":{"type":"Point","coordinates":[79.06683315373787,12.231864674148184]},"properties":{"layer":"heritage","osm_type":"way","osm_id":91456713,"name":"Arulmigu Arunachaleswarar Temple","tags":{"addr:full":"Pavazhakundur, Tiruvannamalai, Tamil Nadu 606601","amenity":"place_of_worship","building":"temple","description":"Hindu temples for Lord Shiva with 6 sculpted towers reaching up to 217-feet high & shrines.","historic":"yes","name":"Arulmigu Arunachaleswarar Temple","name:en":"Arunachaleswara Temple","name:ml":"\u0d05\u0d30\u0d41\u0d23\u0d3e\u0d1a\u0d32\u0d47\u0d36\u0d4d\u0d35\u0d30 \u0d15\u0d4d\u0d37\u0d47\u0d24\u0d4d\u0d30\u0d02","name:ta":"\u0b85\u0ba3\u0bcd\u0ba3\u0bbe\u0bae\u0bb2\u0bc8\u0baf\u0bbe\u0bb0\u0bcd \u0b95\u0bcb\u0baf\u0bbf\u0bb2\u0bcd","phone":"4175 252 438","religion":"hindu","wikidata":"Q3523924","wikimedia_commons":"Category:Arunchaleshvara Temple","wikipedia":"en:Arunachalesvara Temple"}}},{"type":"Feature","geometry":{"type":"Point","coordinates":[78.69246014672193,10.85850527848806]},"properties":{"layer":"heritage","osm_type":"way","osm_id":96786229,"name":null,"tags":{"barrier":"wall","historic":"citywalls"}}},{"type":"Feature","geometry":{"type":"Point","coordinates":[78.69694957033477,10.828189172619725]},"properties":{"layer":"heritage","osm_type":"way","osm_id":100787187,"name":"Tiruchirapalli Rock Fort","tags":{"historic":"fort","name":"Tiruchirapalli Rock Fort","name:ml":"\u0d24\u0d3f\u0d30\u0d41\u0d1a\u0d4d\u0d1a\u0d3f\u0d31\u0d2a\u0d4d\u0d2a\u0d33\u0d4d\u0d33\u0d3f \u0d2e\u0d32\u0d15\u0d4d\u0d15\u0d4b\u0d1f\u0d4d\u0d1f","name:ta":"\u0ba4\u0bbf\u0bb0\u0bc1\u0b9a\u0bcd\u0b9a\u0bbf\u0bb0\u0bbe\u0baa\u0bcd\u0baa\u0bb3\u0bcd\u0bb3\u0bbf \u0bae\u0bb2\u0bc8\u0b95\u0bcd\u0b95\u0bcb\u0b9f\u0bcd\u0b9f\u0bc8","natural":"bare_rock","wikidata":"Q7809304","wikimedia_commons":"Category:Tiruchirapalli Rock Fort","wikipedia":"en:Tiruchirappalli Rock Fort"}}},{"type":"Feature","geometry":{"type":"Point","coordinates":[80.18959010239806,12.608951041058553]},"properties":{"layer":"heritage","osm_type":"way","osm_id":103082949,"name":"Pancha Rathas","tags":{"barrier":"fence","heritage":"1","heritage:operator":"whc","heritage:website":"https://whc.unesco.org/en/list/249","historic":"archaeological_site","name":"Pancha Rathas","name:de":"F\u00fcnf Rathas","name:en":"Five Rathas","ref:whc":"249","tourism":"attraction","whc:criteria":"(i)(ii)(iii)(vi)","whc:inscription_date":"1984","wikidata":"Q2445615","wikipedia":"fr:Cinq Ratha"}}},{"type":"Feature","geometry":{"type":"Point","coordinates":[80.19164703754518,12.617287482837387]},"properties":{"layer":"heritage","osm_type":"way","osm_id":103163461,"name":"Group of Monuments - Mahabalipuram","tags":{"barrier":"fence","historic":"archaeological_site","leisure":"park","name":"Group of Monuments - Mahabalipuram","name:en":"Group of Monuments - Mahabalipuram","name:hi":"\u092e\u0939\u093e\u092c\u0932\u0940\u092a\u0941\u0930\u092e \u092e\u0947\u0902 \u0938\u094d\u092e\u093e\u0930\u0915\u094b\u0902 \u0915\u093e \u0938\u092e\u0942\u0939","name:ml":"\u0d2e\u0d39\u0d3e\u0d2c\u0d32\u0d3f\u0d2a\u0d41\u0d30\u0d02 \u0d38\u0d4d\u0d2e\u0d3e\u0d30\u0d15\u0d19\u0d4d\u0d19\u0d33\u0d41\u0d1f\u0d46 \u0d15\u0d42\u0d1f\u0d4d\u0d1f\u0d02","name:ta":"\u0bae\u0bbe\u0bae\u0bb2\u0bcd\u0bb2\u0baa\u0bc1\u0bb0 \u0bae\u0bb0\u0baa\u0bc1\u0b95\u0bcd\u0b95\u0bcb\u0baf\u0bbf\u0bb2\u0bcd\u0b95\u0bb3\u0bcd"}}},{"type":"Feature","geometry":{"type":"Point","coordinates":[80.3164277465203,13.419450468909744]},"properties":{"layer":"heritage","osm_type":"way","osm_id":103450655,"name":"Fort Geldria","tags":{"historic":"fort","name":"Fort Geldria","name:ta":"\u0baa\u0bb4\u0bb5\u0bc7\u0bb1\u0bcd\u0b95\u0bbe\u0b9f\u0bc1 \u0b95\u0bcb\u0b9f\u0bcd\u0b9f\u0bc8","wikidata":"Q5471211","wikimedia_commons":"Category:Fort Geldria","wikipedia":"en:Fort Geldria"}}},{"type":"Feature","geometry":{"type":"Point","coordinates":[78.81841173370962,10.830139648978639]},"properties":{"layer":"heritage","osm_type":"way","osm_id":104683753,"name":"Kallanai","tags":{"alt_name:en":"Grand Anicut","alt_name:uk":"\u0413\u0440\u0430\u043d\u0434 \u0410\u043d\u0456\u043a\u0443\u0442","historic":"yes","name":"Kallanai","name:ml":"\u0d15\u0d32\u0d4d\u0d32\u0d23","name:ru":"\u041a\u0430\u043b\u043b\u0430\u043d\u0430\u0439","name:ta":"\u0b95\u0bb2\u0bcd\u0bb2\u0ba3\u0bc8","name:te":"\u0c15\u0c32\u0c4d\u0c32\u0c28\u0c48 \u0c21\u0c4d\u0c2f\u0c3e\u0c2e\u0c4d","name:uk":"\u041a\u0430\u043b\u043b\u0430\u043d\u0430\u0439","waterway":"dam","wikidata":"Q3534498","wikipedia":"ta:\u0b95\u0bb2\u0bcd\u0bb2\u0ba3\u0bc8"}}},{"type":"Feature","geometry":{"type":"Point","coordinates":[78.68654099257802,10.860558823141352]},"properties":{"layer":"heritage","osm_type":"way","osm_id":109632413,"name":null,"tags":{"barrier":"wall","historic":"citywalls"}}},{"type":"Feature","geometry":{"type":"Point","coordinates":[78.68746175333338,10.865356292298301]},"properties":{"layer":"heritage","osm_type":"way","osm_id":109632420,"name":null,"tags":{"barrier":"wall","historic":"citywalls"}}},{"type":"Feature","geometry":{"type":"Point","coordinates":[78.69353455000001,10.8612466]},"properties":{"layer":"heritage","osm_type":"way","osm_id":109632425,"name":null,"tags":{"barrier":"wall","historic":"citywalls"}}},{"type":"Feature","geometry":{"type":"Point","coordinates":[78.69239483470247,10.865668315859276]},"properties":{"layer":"heritage","osm_type":"way","osm_id":109632427,"name":null,"tags":{"barrier":"wall","historic":"citywalls"}}},{"type":"Feature","geometry":{"type":"Point","coordinates":[78.68781009734012,10.85829374637518]},"properties":{"layer":"heritage","osm_type":"way","osm_id":109632428,"name":null,"tags":{"barrier":"wall","historic":"citywalls"}}},{"type":"Feature","geometry":{"type":"Point","coordinates":[78.6935503,10.863244150000002]},"properties":{"layer":"heritage","osm_type":"way","osm_id":109632433,"name":null,"tags":{"barrier":"wall","historic":"citywalls"}}},{"type":"Feature","geometry":{"type":"Point","coordinates":[77.55400264478202,8.077746013549998]},"properties":{"layer":"heritage","osm_type":"way","osm_id":115666904,"name":"\u0ba4\u0bbf\u0bb0\u0bc1\u0bb5\u0bb3\u0bcd\u0bb3\u0bc1\u0bb5\u0bb0\u0bcd \u0b9a\u0bbf\u0bb2\u0bc8","tags":{"building":"yes","building:colour":"#726e6e","building:material":"sandstone","building:part":"yes","ele":"133","height":"11.5","historic":"monument","name":"\u0ba4\u0bbf\u0bb0\u0bc1\u0bb5\u0bb3\u0bcd\u0bb3\u0bc1\u0bb5\u0bb0\u0bcd \u0b9a\u0bbf\u0bb2\u0bc8","name:en":"Thiruvalluvar Statue","name:hi":"\u0924\u093f\u0930\u0941\u0935\u0932\u094d\u0932\u0941\u0935\u0930 \u092a\u094d\u0930\u0924\u093f\u092e\u093e","name:ml":"\u0d24\u0d3f\u0d30\u0d41\u0d35\u0d33\u0d4d\u0d33\u0d41\u0d35\u0d7c \u0d2a\u0d4d\u0d30\u0d24\u0d3f\u0d2e","name:ta":"\u0ba4\u0bbf\u0bb0\u0bc1\u0bb5\u0bb3\u0bcd\u0bb3\u0bc1\u0bb5\u0bb0\u0bcd \u0b9a\u0bbf\u0bb2\u0bc8"}}},{"type":"Feature","geometry":{"type":"Point","coordinates":[79.13139672701752,10.782584667711838]},